행정구,카페이름,지번주소,도로명코드,도로명,도로명 주소,경도,위도
서초구,할리스커피남부터미널,서울특별시 서초구 서초동 1623-10,1.17E+11,서울특별시 서초구 서초중앙로,서울특별시 서초구 서초중앙로 52,127.0157388,37.4867237
서초구,회화나무로스터스,서울특별시 서초구 우면동 687,1.17E+11,서울특별시 서초구 성촌1길,서울특별시 서초구 성촌1길 12,127.0221308,37.46565598
서초구,이디야커피양재AT점,서울특별시 서초구 양재동 326-9,1.17E+11,서울특별시 서초구 동산로,서울특별시 서초구 동산로 3,127.0402645,37.4690755
서초구,스타벅스남부터미널2점,서울특별시 서초구 서초동 1457-1,1.17E+11,서울특별시 서초구 효령로,서울특별시 서초구 효령로 274,127.0141978,37.48438612
서초구,CAFEWONDER카페원더,서울특별시 서초구 양재동 7-1,1.17E+11,서울특별시 서초구 바우뫼로41길,서울특별시 서초구 바우뫼로41길 88,127.0398774,37.48431827
서초구,오토카페,서울특별시 서초구 방배동 528-97,1.17E+11,서울특별시 서초구 효령로,서울특별시 서초구 효령로 33,126.9881261,37.47831786
서초구,에스프레사멘테일리부띠크모나코점,서울특별시 서초구 서초동 1316-5,1.17E+11,서울특별시 서초구 서초대로,서울특별시 서초구 서초대로 397,127.0244987,37.49742881
서초구,CAFEMERCI,서울특별시 서초구 서초동 1550-11,1.17E+11,서울특별시 서초구 서초대로46길,서울특별시 서초구 서초대로46길 38,127.0103478,37.49080549
서초구,티티까페,서울특별시 서초구 잠원동 50-2,1.17E+11,서울특별시 서초구 잠원로14길,서울특별시 서초구 잠원로14길 29,127.015432,37.51784354
서초구,더테라스,서울특별시 서초구 잠원동 58-24,1.17E+11,서울특별시 서초구 나루터로4길,서울특별시 서초구 나루터로4길 61,127.013448,37.50958236
서초구,할리스,서울특별시 서초구 방배동 981-7,1.17E+11,서울특별시 서초구 방배로9길,서울특별시 서초구 방배로9길 23,126.9968837,37.48036585
서초구,북해빙수,서울특별시 서초구 반포동 19-3,1.17E+11,서울특별시 서초구 신반포로,서울특별시 서초구 신반포로 176,127.0023932,37.50393001
서초구,스타벅스,서울특별시 서초구 방배동 907-1,1.17E+11,서울특별시 서초구 방배로,서울특별시 서초구 방배로 114,126.9960731,37.48433262
서초구,신사장,서울특별시 서초구 잠원동 15-8,1.17E+11,서울특별시 서초구 나루터로,서울특별시 서초구 나루터로 65,127.0168649,37.51554878
서초구,스타벅스,서울특별시 서초구 잠원동 70-1,1.17E+11,서울특별시 서초구 잠원로,서울특별시 서초구 잠원로 69,127.006958,37.51024881
서초구,coffee34thST.,서울특별시 서초구 방배동 1018-1,1.17E+11,서울특별시 서초구 효령로34길,서울특별시 서초구 효령로34길 79,127.0008691,37.4791021
서초구,카페보니또,서울특별시 서초구 반포동 709-8,1.17E+11,서울특별시 서초구 사평대로55길,서울특별시 서초구 사평대로55길 123,127.0203301,37.50919812
서초구,우리집젤라또,서울특별시 서초구 방배동 789-39,1.17E+11,서울특별시 서초구 동광로,서울특별시 서초구 동광로 25,126.9856461,37.49115464
서초구,커피빈,서울특별시 서초구 반포동 1141,1.17E+11,서울특별시 서초구 신반포로,서울특별시 서초구 신반포로 23,126.9872107,37.50173741
서초구,스타벅스,서울특별시 서초구 반포동 118-3,1.17E+11,서울특별시 서초구 사평대로,서울특별시 서초구 사평대로 205,127.0078261,37.50448036
서초구,빽다방서초우성점,서울특별시 서초구 서초동 1329-9,1.17E+11,서울특별시 서초구 사임당로,서울특별시 서초구 사임당로 181,127.0293055,37.4930262
서초구,카페난난,서울특별시 서초구 반포동 19-3,1.17E+11,서울특별시 서초구 신반포로,서울특별시 서초구 신반포로 176,127.0023932,37.50393001
서초구,커피주네,서울특별시 서초구 방배동 750-11,1.17E+11,서울특별시 서초구 사평대로2길,서울특별시 서초구 사평대로2길 10,126.9861991,37.49792629
서초구,모짜르트카페,서울특별시 서초구 서초동 700,1.17E+11,서울특별시 서초구 남부순환로,서울특별시 서초구 남부순환로 2406,127.0098083,37.47770863
서초구,카페다디오,서울특별시 서초구 방배동 3001-1,1.17E+11,서울특별시 서초구 동작대로,서울특별시 서초구 동작대로 108,126.9826288,37.4860017
서초구,카페후르티바,서울특별시 서초구 서초동 1706-3,1.17E+11,서울특별시 서초구 법원로3길,서울특별시 서초구 법원로3길 6-9,127.0091833,37.49421073
서초구,PAULSCOFFEE,서울특별시 서초구 서초동 1544-12,1.17E+11,서울특별시 서초구 반포대로22길,서울특별시 서초구 반포대로22길 7,127.0098542,37.48879201
서초구,에코하우스커피기프트,서울특별시 서초구 잠원동 60-3,1.17E+11,서울특별시 서초구 나루터로4길,서울특별시 서초구 나루터로4길 28,127.0120001,37.51130928
서초구,카페스카이앤라이브러리,서울특별시 서초구 반포동 91-7,1.17E+11,서울특별시 서초구 서래로,서울특별시 서초구 서래로 32,126.9984812,37.49790491
서초구,애견카페,서울특별시 서초구 반포동 722-29,1.17E+11,서울특별시 서초구 강남대로,서울특별시 서초구 강남대로 525-3,127.021919,37.50878779
서초구,오페라빈로스터스,서울특별시 서초구 서초동 1449-8,1.17E+11,서울특별시 서초구 남부순환로,서울특별시 서초구 남부순환로 2433-7,127.0161826,37.48220409
서초구,스타벅스교대역점,서울특별시 서초구 서초동 1693-3,1.17E+11,서울특별시 서초구 서초중앙로,서울특별시 서초구 서초중앙로 138,127.0139553,37.49423264
서초구,스타벅스,서울특별시 서초구 서초동 1538-10,1.17E+11,서울특별시 서초구 반포대로21길,서울특별시 서초구 반포대로21길 3,127.0090015,37.48828928
서초구,한우리보호작업장,서울특별시 서초구 방배동 1023-3,1.17E+11,서울특별시 서초구 방배로,서울특별시 서초구 방배로 40,126.9999849,37.47842784
서초구,카페누모,서울특별시 서초구 신원동 263,1.17E+11,서울특별시 서초구 청룡마을길,서울특별시 서초구 청룡마을길 47,127.0583469,37.44878487
서초구,보야커피,서울특별시 서초구 서초동 1542-1,1.17E+11,서울특별시 서초구 서초대로,서울특별시 서초구 서초대로 240,127.0082244,37.49147249
서초구,카페에일린,서울특별시 서초구 양재동 230,1.17E+11,서울특별시 서초구 청계산로,서울특별시 서초구 청계산로 10,127.0435124,37.46348822
서초구,라온커피인터내셔날,서울특별시 서초구 반포동 726-38,1.17E+11,서울특별시 서초구 주흥길,서울특별시 서초구 주흥길 40-19,127.0204156,37.50611723
서초구,일커피,서울특별시 서초구 서초동 1498-5,1.17E+11,서울특별시 서초구 서초대로38길,서울특별시 서초구 서초대로38길 12,127.0053652,37.49048432
서초구,망개떡,서울특별시 서초구 반포동 1053,1.17E+11,서울특별시 서초구 신반포로,서울특별시 서초구 신반포로 22,126.9871619,37.50116032
서초구,더카페,서울특별시 서초구 서초동 1366-18,1.17E+11,서울특별시 서초구 남부순환로,서울특별시 서초구 남부순환로 2575,127.0322188,37.48459819
서초구,라르고,서울특별시 서초구 서초동 1461-2,1.17E+11,서울특별시 서초구 반포대로9길,서울특별시 서초구 반포대로9길 3,127.0114883,37.48321013
서초구,스타벅스,서울특별시 서초구 방배동 908-10,1.17E+11,서울특별시 서초구 방배로,서울특별시 서초구 방배로 84,126.9976309,37.48198508
서초구,프렌즈카페,서울특별시 서초구 양재동 12-7,1.17E+11,서울특별시 서초구 남부순환로350길,서울특별시 서초구 남부순환로350길 12,127.0354495,37.48396684
서초구,탐앤탐스,서울특별시 서초구 양재동 16-6,1.17E+11,서울특별시 서초구 바우뫼로37길,서울특별시 서초구 바우뫼로37길 30,127.0391396,37.48012236
서초구,카페힐,서울특별시 서초구 잠원동 42-13,1.17E+11,서울특별시 서초구 신반포로45길,서울특별시 서초구 신반포로45길 23,127.0182881,37.51138875
서초구,CremaDoro,서울특별시 서초구 우면동 687-2,1.17E+11,서울특별시 서초구 성촌1길,서울특별시 서초구 성촌1길 6,127.0223886,37.4658203
서초구,허니비와플까페,서울특별시 서초구 우면동 66-2,1.17E+11,서울특별시 서초구 바우뫼로7길,서울특별시 서초구 바우뫼로7길 8,127.0253643,37.47084576
서초구,베네트,서울특별시 서초구 방배동 816-4,1.17E+11,서울특별시 서초구 서초대로19길,서울특별시 서초구 서초대로19길 88-3,126.9893376,37.4907808
서초구,벨띠에다빈치카페,서울특별시 서초구 서초동 700,1.17E+11,서울특별시 서초구 남부순환로,서울특별시 서초구 남부순환로 2406,127.0141267,37.48033078
서초구,투썸플레이스양재역점,서울특별시 서초구 양재동 24,1.17E+11,서울특별시 서초구 강남대로,서울특별시 서초구 강남대로 213,127.0349336,37.48275521
서초구,글로리아진스커피,서울특별시 서초구 우면동 686,1.17E+11,서울특별시 서초구 성촌1길,서울특별시 서초구 성촌1길 26,127.0213541,37.46539725
서초구,"Cafe,Sky&Library",서울특별시 서초구 반포동 91-7,1.17E+11,서울특별시 서초구 서래로,서울특별시 서초구 서래로 32,126.9984812,37.49790491
서초구,스타벅스강남삼성타운점,서울특별시 서초구 서초동 1327-5,1.17E+11,서울특별시 서초구 서초대로78길,서울특별시 서초구 서초대로78길 24,127.027735,37.49553624
서초구,이디야커피,서울특별시 서초구 양재동 377-1,1.17E+11,서울특별시 서초구 동산로,서울특별시 서초구 동산로 60,127.0453977,37.4716851
서초구,커피잉,서울특별시 서초구 방배동 901-2,1.17E+11,서울특별시 서초구 방배로,서울특별시 서초구 방배로 130,126.9951605,37.48577556
서초구,트리밍807,서울특별시 서초구 방배동 795-15,1.17E+11,서울특별시 서초구 방배로37길,서울특별시 서초구 방배로37길 7,126.9892892,37.4935286
서초구,다이어트카페,서울특별시 서초구 방배동 864-37,1.17E+11,서울특별시 서초구 도구로,서울특별시 서초구 도구로 119-2,126.9858463,37.48721875
서초구,데니보이,서울특별시 서초구 잠원동 49-18,1.17E+11,서울특별시 서초구 잠원로,서울특별시 서초구 잠원로 201-8,127.0139396,37.52036304
서초구,부나빈,서울특별시 서초구 우면동 755,1.17E+11,서울특별시 서초구 양재대로2길,서울특별시 서초구 양재대로2길 100-48,127.0153507,37.45684137
서초구,커피빈,서울특별시 서초구 서초동 1685-8,1.17E+11,서울특별시 서초구 서초중앙로24길,서울특별시 서초구 서초중앙로24길 27,127.0163934,37.49544236
서초구,카페디엠,서울특별시 서초구 양재동 397-7,1.17E+11,서울특별시 서초구 논현로5길,서울특별시 서초구 논현로5길 38,127.0479661,37.4715166
서초구,커피빈코리아서초역1번출구점,서울특별시 서초구 서초동 1553-3,1.17E+11,서울특별시 서초구 서초대로,서울특별시 서초구 서초대로 250,127.0092578,37.49199476
서초구,와플반트,서울특별시 서초구 반포동 520-3,1.17E+11,서울특별시 서초구 반포대로,서울특별시 서초구 반포대로 217,127.0033232,37.49948666
서초구,카페NODAZI,서울특별시 서초구 양재동 6-34,1.17E+11,서울특별시 서초구 바우뫼로41길,서울특별시 서초구 바우뫼로41길 38-4,127.0408553,37.48211862
서초구,팔로미노,서울특별시 서초구 잠원동 15-4,1.17E+11,서울특별시 서초구 나루터로,서울특별시 서초구 나루터로 69,127.0173603,37.5157241
서초구,탐앤탐스,서울특별시 서초구 방배동 446-1,1.17E+11,서울특별시 서초구 방배천로2길,서울특별시 서초구 방배천로2길 10,126.9832858,37.4767355
서초구,스타벅스,서울특별시 서초구 서초동 1317-23,1.17E+11,서울특별시 서초구 서초대로,서울특별시 서초구 서초대로 411,127.0259036,37.49809817
서초구,세븐브릭스커피교대,서울특별시 서초구 서초동 1695-1,1.17E+11,서울특별시 서초구 서초중앙로26길,서울특별시 서초구 서초중앙로26길 10,127.0143795,37.49551567
서초구,다솜채,서울특별시 서초구 서초동 1650,1.17E+11,서울특별시 서초구 서초중앙로,서울특별시 서초구 서초중앙로 96,127.0153696,37.49073032
서초구,스타벅스,서울특별시 서초구 잠원동 58-24,1.17E+11,서울특별시 서초구 나루터로4길,서울특별시 서초구 나루터로4길 61,127.0119225,37.50861449
서초구,아르디카페방배지점,서울특별시 서초구 방배동 1001-1,1.17E+11,서울특별시 서초구 효령로,서울특별시 서초구 효령로 174,127.0031034,37.48198633
서초구,청호다방,서울특별시 서초구 방배동 1459,1.17E+11,서울특별시 서초구 서초대로1길,서울특별시 서초구 서초대로1길 14,126.9832419,37.4874847
서초구,로찌커피,서울특별시 서초구 서초동 1676-2,1.17E+11,서울특별시 서초구 서초대로58길,서울특별시 서초구 서초대로58길 5,127.0179547,37.49452726
서초구,타미하우스,서울특별시 서초구 반포동 53-5,1.17E+11,서울특별시 서초구 서초중앙로33길,서울특별시 서초구 서초중앙로33길 14,127.0106195,37.50107078
서초구,MOMENT모멘트,서울특별시 서초구 방배동 850-27,1.17E+11,서울특별시 서초구 서초대로27길,서울특별시 서초구 서초대로27길 39,126.9938863,37.48972935
서초구,한빛건강사우나,서울특별시 서초구 서초동 1678-2,1.17E+11,서울특별시 서초구 서초대로,서울특별시 서초구 서초대로 350,127.0196644,37.49523527
서초구,8팩토리,서울특별시 서초구 서초동 1302-36,1.17E+11,서울특별시 서초구 서운로26길,서울특별시 서초구 서운로26길 9,127.0227563,37.50269459
서초구,워커스에디션,서울특별시 서초구 우면동 228-3,1.17E+11,서울특별시 서초구 형촌3길,서울특별시 서초구 형촌3길 20,127.0186153,37.46477984
서초구,카페무스토,서울특별시 서초구 방배동 978-34,1.17E+11,서울특별시 서초구 효령로,서울특별시 서초구 효령로 83,126.9933111,37.48034447
서초구,RABBITHOLE,서울특별시 서초구 반포동 105-8,1.17E+11,서울특별시 서초구 사평대로22길,서울특별시 서초구 사평대로22길 32,126.9975495,37.4982304
서초구,파스쿠찌,서울특별시 서초구 양재동 11-149,1.17E+11,서울특별시 서초구 남부순환로,서울특별시 서초구 남부순환로 2620,127.0373082,37.48450461
서초구,스타벅스,서울특별시 서초구 서초동 1699-3,1.17E+11,서울특별시 서초구 서초중앙로,서울특별시 서초구 서초중앙로 164,127.013362,37.49635417
서초구,카페킹,서울특별시 서초구 서초동 1486-6,1.17E+11,서울특별시 서초구 효령로,서울특별시 서초구 효령로 222,127.0083445,37.48323785
서초구,삼차,서울특별시 서초구 방배동 778-32,1.17E+11,서울특별시 서초구 방배중앙로,서울특별시 서초구 방배중앙로 151,126.9863832,37.49267473
서초구,투썸플레이스,서울특별시 서초구 방배동 910-14,1.17E+11,서울특별시 서초구 방배로,서울특별시 서초구 방배로 97,126.996274,37.48283857
서초구,빈스앤와플,서울특별시 서초구 반포동 19-3,1.17E+11,서울특별시 서초구 신반포로,서울특별시 서초구 신반포로 176,127.0023932,37.50393001
서초구,투썸플레이스콜드스톤크리머리,서울특별시 서초구 반포동 18-3,1.17E+11,서울특별시 서초구 반포대로,서울특별시 서초구 반포대로 287,127.0010418,37.50434209
서초구,떼루와떼루와반포점,서울특별시 서초구 반포동 113-2,1.17E+11,서울특별시 서초구 사평대로,서울특별시 서초구 사평대로 58,126.9908586,37.49792113
서초구,고양이다락방강남점,서울특별시 서초구 서초동 1317-11,1.17E+11,서울특별시 서초구 서초대로77길,서울특별시 서초구 서초대로77길 9,127.0262027,37.4985782
서초구,웨일즈커피,서울특별시 서초구 서초동 1717-4,1.17E+11,서울특별시 서초구 법원로1길,서울특별시 서초구 법원로1길 1,127.0102938,37.49318383
서초구,커피빈,서울특별시 서초구 서초동 1328-7,1.17E+11,서울특별시 서초구 강남대로,서울특별시 서초구 강남대로 365,127.0283372,37.49531593
서초구,백다방,서울특별시 서초구 서초동 1329-9,1.17E+11,서울특별시 서초구 사임당로,서울특별시 서초구 사임당로 181,127.0293055,37.4930262
서초구,까,서울특별시 서초구 반포동 114-3,1.17E+11,서울특별시 서초구 사평대로,서울특별시 서초구 사평대로 55,126.9904955,37.49884612
서초구,마피아커피,서울특별시 서초구 서초동 1621-1,1.17E+11,서울특별시 서초구 서초중앙로,서울특별시 서초구 서초중앙로 50,127.0157207,37.48638115
서초구,커피빈,서울특별시 서초구 잠원동 40-4,1.17E+11,서울특별시 서초구 신반포로47길,서울특별시 서초구 신반포로47길 5,127.0194363,37.51094776
서초구,떼루와우면2호점,서울특별시 서초구 우면동 755,1.17E+11,서울특별시 서초구 양재대로2길,서울특별시 서초구 양재대로2길 100-48,127.0153507,37.45684137
서초구,양재천커피볶는집,서울특별시 서초구 양재동 263,1.17E+11,서울특별시 서초구 마방로,서울특별시 서초구 마방로 44-1,127.0423552,37.47621984
서초구,스타벅스,서울특별시 서초구 방배동 777-11,1.17E+11,서울특별시 서초구 방배중앙로,서울특별시 서초구 방배중앙로 162,126.9865526,37.49352318
서초구,MU커피,서울특별시 서초구 방배동 766-34,1.17E+11,서울특별시 서초구 방배중앙로25길,서울특별시 서초구 방배중앙로25길 38,126.983945,37.49401438
서초구,도피오카페,서울특별시 서초구 서초동 1355,1.17E+11,서울특별시 서초구 효령로72길,서울특별시 서초구 효령로72길 60,127.0280673,37.48560033
서초구,커피코트,서울특별시 서초구 서초동 1316-5,1.17E+11,서울특별시 서초구 서초대로,서울특별시 서초구 서초대로 397,127.0244987,37.49742881
서초구,cafeVIACE,서울특별시 서초구 양재동 20-29,1.17E+11,서울특별시 서초구 강남대로,서울특별시 서초구 강남대로 156-2,127.0390691,37.47856295
서초구,커피볶는집르카페,서울특별시 서초구 양재동 13-1,1.17E+11,서울특별시 서초구 강남대로,서울특별시 서초구 강남대로 220,127.0354084,37.48364212
서초구,카페망개떡,서울특별시 서초구 반포동 1053,1.17E+11,서울특별시 서초구 신반포로,서울특별시 서초구 신반포로 22,126.9871619,37.50116032
서초구,청계다방,서울특별시 서초구 원지동 376-12,1.17E+11,서울특별시 서초구 원터4길,서울특별시 서초구 원터4길 6,127.056048,37.44375661
서초구,데일리3커피,서울특별시 서초구 서초동 1647-2,1.17E+11,서울특별시 서초구 사임당로,서울특별시 서초구 사임당로 105,127.0212185,37.49053564
서초구,딥다이브,서울특별시 서초구 방배동 435-2,1.17E+11,서울특별시 서초구 방배천로18길,서울특별시 서초구 방배천로18길 36-5,126.9848819,37.48244389
서초구,커피빈,서울특별시 서초구 서초동 1320-10,1.17E+11,서울특별시 서초구 서초대로74길,서울특별시 서초구 서초대로74길 11,127.0268953,37.49662862
서초구,스위트몬스터,서울특별시 서초구 서초동 1303-22,1.17E+11,서울특별시 서초구 강남대로,서울특별시 서초구 강남대로 465,127.0240884,37.50375083
서초구,달콤커피서래마을점,서울특별시 서초구 반포동 92-14,1.17E+11,서울특별시 서초구 사평대로26길,서울특별시 서초구 사평대로26길 26-7,126.9985345,37.49899564
서초구,드림닥터카페테리아,서울특별시 서초구 양재동 232,1.17E+11,서울특별시 서초구 강남대로,서울특별시 서초구 강남대로 27,127.0391217,37.46827328
서초구,로지카스터디카페,서울특별시 서초구 서초동 1689-6,1.17E+11,서울특별시 서초구 서초대로,서울특별시 서초구 서초대로 341,127.0186998,37.49548857
서초구,RORI,서울특별시 서초구 우면동 8-6,1.17E+11,서울특별시 서초구 바우뫼로2길,서울특별시 서초구 바우뫼로2길 69,127.0275854,37.46869251
서초구,김밥까페,서울특별시 서초구 반포동 52-2,1.17E+11,서울특별시 서초구 고무래로10길,서울특별시 서초구 고무래로10길 5,127.0108887,37.50210023
서초구,더웰BeingF&B,서울특별시 서초구 반포동 734-34,1.17E+11,서울특별시 서초구 강남대로83길,서울특별시 서초구 강남대로83길 34,127.0217538,37.50584899
서초구,커피박스,서울특별시 서초구 방배동 923-6,1.17E+11,서울특별시 서초구 방배로13길,서울특별시 서초구 방배로13길 18,126.9952751,37.48312743
서초구,빽다방,서울특별시 서초구 반포동 19-3,1.17E+11,서울특별시 서초구 신반포로,서울특별시 서초구 신반포로 176,127.0023932,37.50393001
서초구,LacittaBookGallery,서울특별시 서초구 양재동 215,1.17E+11,서울특별시 서초구 매헌로,서울특별시 서초구 매헌로 16,127.0369353,37.46246166
서초구,벌떼카페,서울특별시 서초구 우면동 2-4,1.17E+11,서울특별시 서초구 바우뫼로,서울특별시 서초구 바우뫼로 14,127.0248612,37.46954408
서초구,세컨드브레스,서울특별시 서초구 양재동 98-4,1.17E+11,서울특별시 서초구 양재천로,서울특별시 서초구 양재천로 95-2,127.0397338,37.47609945
서초구,CUCINA,서울특별시 서초구 양재동 215,1.17E+11,서울특별시 서초구 매헌로,서울특별시 서초구 매헌로 16,127.0369353,37.46246166
서초구,방배목장,서울특별시 서초구 방배동 18-21,1.17E+11,서울특별시 서초구 방배로42길,서울특별시 서초구 방배로42길 11,126.9893889,37.4953676
서초구,공간21,서울특별시 서초구 서초동 1550-12,1.17E+11,서울특별시 서초구 서초대로46길,서울특별시 서초구 서초대로46길 42,127.0105087,37.49060861
서초구,코스트코코리아푸드코트커피코너,서울특별시 서초구 양재동 217-6,1.17E+11,서울특별시 서초구 양재대로,서울특별시 서초구 양재대로 159,127.036139,37.46196859
서초구,빽다방반포고투몰2호점,서울특별시 서초구 반포동 128-4,1.17E+11,서울특별시 서초구 신반포로,서울특별시 서초구 신반포로 186-2,127.0050321,37.50621391
서초구,AssembleJuiceCompany,서울특별시 서초구 서초동 1498-5,1.17E+11,서울특별시 서초구 서초대로38길,서울특별시 서초구 서초대로38길 12,127.0053652,37.49048432
서초구,카페8월,서울특별시 서초구 반포동 739-33,1.17E+11,서울특별시 서초구 강남대로79길,서울특별시 서초구 강남대로79길 34,127.0223126,37.50462818
서초구,프랑스스트링,서울특별시 서초구 서초동 1451-25,1.17E+11,서울특별시 서초구 반포대로10길,서울특별시 서초구 반포대로10길 24,127.0131436,37.48372856
서초구,온더커피,서울특별시 서초구 잠원동 61-9,1.17E+11,서울특별시 서초구 잠원로4길,서울특별시 서초구 잠원로4길 33-2,127.0106456,37.5128027
서초구,우진커피숍,서울특별시 서초구 방배동 1022-1,1.17E+11,서울특별시 서초구 방배로8길,서울특별시 서초구 방배로8길 4,126.9991197,37.47971803
서초구,커피앳더코너,서울특별시 서초구 양재동 86,1.17E+11,서울특별시 서초구 논현로27길,서울특별시 서초구 논현로27길 21,127.0424596,37.48044666
서초구,스타벅스,서울특별시 서초구 양재동 14-4,1.17E+11,서울특별시 서초구 강남대로,서울특별시 서초구 강남대로 202,127.0368501,37.48232032
서초구,뭉치치카페,서울특별시 서초구 방배동 824-1,1.17E+11,서울특별시 서초구 동광로,서울특별시 서초구 동광로 22,126.9851772,37.49070909
서초구,라온카페앤칵테일,서울특별시 서초구 반포동 738-9,1.17E+11,서울특별시 서초구 사평대로57길,서울특별시 서초구 사평대로57길 45,127.0224953,37.50623357
서초구,700요트클럽,서울특별시 서초구 반포동 1333-1,1.17E+11,서울특별시 서초구 동작대로,서울특별시 서초구 동작대로 350,126.9810714,37.50575736
서초구,공존스터디라운지,서울특별시 서초구 서초동 1576-6,1.17E+11,서울특별시 서초구 서초중앙로,서울특별시 서초구 서초중앙로 99,127.0139123,37.49061905
서초구,미스콩.SAND.COFFEE,서울특별시 서초구 잠원동 37-6,1.17E+11,서울특별시 서초구 강남대로,서울특별시 서초구 강남대로 559,127.0205228,37.51176772
서초구,엘리스토리커피볶는집,서울특별시 서초구 양재동 332-1,1.17E+11,서울특별시 서초구 강남대로8길,서울특별시 서초구 강남대로8길 39-15,127.0421838,37.46928029
서초구,스위트번스커피,서울특별시 서초구 서초동 1443-13,1.17E+11,서울특별시 서초구 효령로,서울특별시 서초구 효령로 332,127.020556,37.48584465
서초구,콘레드커피,서울특별시 서초구 반포동 705-1,1.17E+11,서울특별시 서초구 신반포로,서울특별시 서초구 신반포로 328,127.0196473,37.51038184
서초구,커피빈,서울특별시 서초구 반포동 51-7,1.17E+11,서울특별시 서초구 서초중앙로,서울특별시 서초구 서초중앙로 209,127.0118058,37.5003058
서초구,카페베네,서울특별시 서초구 양재동 215,1.17E+11,서울특별시 서초구 매헌로,서울특별시 서초구 매헌로 16,127.0369353,37.46246166
서초구,브이카페,서울특별시 서초구 반포동 19-3,1.17E+11,서울특별시 서초구 신반포로,서울특별시 서초구 신반포로 176,127.0023932,37.50393001
서초구,버지니아커피숍,서울특별시 서초구 서초동 1698-1,1.17E+11,서울특별시 서초구 서초중앙로28길,서울특별시 서초구 서초중앙로28길 6,127.0138329,37.49666446
서초구,토비커피,서울특별시 서초구 방배동 421-23,1.17E+11,서울특별시 서초구 방배천로24길,서울특별시 서초구 방배천로24길 11,126.9841125,37.48498726
서초구,우토포스,서울특별시 서초구 방배동 769-17,1.17E+11,서울특별시 서초구 방배로39길,서울특별시 서초구 방배로39길 42-7,126.9866644,37.49446123
서초구,스타벅스,서울특별시 서초구 방배동 1022-5,1.17E+11,서울특별시 서초구 방배로,서울특별시 서초구 방배로 52,126.9994187,37.47934212
서초구,매머드익스프레스,서울특별시 서초구 서초동 1321-6,1.17E+11,서울특별시 서초구 서운로,서울특별시 서초구 서운로 138,127.0252291,37.49604722
서초구,새퍼커피,서울특별시 서초구 방배동 951-11,1.17E+11,서울특별시 서초구 서초대로4길,서울특별시 서초구 서초대로4길 17,126.9854709,37.48487279
서초구,커피빈남부터미널점,서울특별시 서초구 서초동 1602-5,1.17E+11,서울특별시 서초구 서초중앙로,서울특별시 서초구 서초중앙로 43,127.0155622,37.48553283
서초구,어투썸플레이스,서울특별시 서초구 양재동 315-5,1.17E+11,서울특별시 서초구 강남대로16길,서울특별시 서초구 강남대로16길 3,127.0391999,37.47099511
서초구,공미학,서울특별시 서초구 서초동 1564-1,1.17E+11,서울특별시 서초구 서초대로48길,서울특별시 서초구 서초대로48길 101,127.0124574,37.48861556
서초구,제로월드,서울특별시 서초구 서초동 1308-25,1.17E+11,서울특별시 서초구 서초대로73길,서울특별시 서초구 서초대로73길 40,127.0245438,37.50091627
서초구,투썸플레이스,서울특별시 서초구 반포동 30-25,1.17E+11,서울특별시 서초구 서초중앙로,서울특별시 서초구 서초중앙로 238,127.0120536,37.50295697
서초구,커피지인,서울특별시 서초구 서초동 1337-6,1.17E+11,서울특별시 서초구 강남대로51길,서울특별시 서초구 강남대로51길 10,127.0292715,37.49128688
서초구,카페고고스회관,서울특별시 서초구 우면동 210-4,1.17E+11,서울특별시 서초구 형촌10길,서울특별시 서초구 형촌10길 3,127.0196378,37.46611288
서초구,커피집,서울특별시 서초구 잠원동 36-28,1.17E+11,서울특별시 서초구 신반포로47길,서울특별시 서초구 신반포로47길 36,127.019011,37.51233185
서초구,산재카페,서울특별시 서초구 서초동 1365-7,1.17E+11,서울특별시 서초구 강남대로37길,서울특별시 서초구 강남대로37길 49,127.0308843,37.48461428
서초구,카페,서울특별시 서초구 반포동 93-3,1.17E+11,서울특별시 서초구 사평대로26길,서울특별시 서초구 사평대로26길 8,126.9986828,37.49974477
서초구,빌리엔젤,서울특별시 서초구 서초동 1575-1,1.17E+11,서울특별시 서초구 반포대로28길,서울특별시 서초구 반포대로28길 94,127.0133749,37.4919301
서초구,매더커피갤러리,서울특별시 서초구 서초동 1530-12,1.17E+11,서울특별시 서초구 효령로47길,서울특별시 서초구 효령로47길 15,127.009413,37.48452631
서초구,퍼스트커피&베이커리,서울특별시 서초구 서초동 1309,1.17E+11,서울특별시 서초구 서초대로77길,서울특별시 서초구 서초대로77길 61,127.0236646,37.50242277
서초구,샌드위치카페,서울특별시 서초구 방배동 911-1,1.17E+11,서울특별시 서초구 방배로13길,서울특별시 서초구 방배로13길 19,126.9953825,37.48270485
서초구,어느새봄,서울특별시 서초구 양재동 362-5,1.17E+11,서울특별시 서초구 강남대로2길,서울특별시 서초구 강남대로2길 70,127.0455906,37.46807341
서초구,올탑스터디카페,서울특별시 서초구 우면동 720,1.17E+11,서울특별시 서초구 태봉로2길,서울특별시 서초구 태봉로2길 65,127.0257681,37.46411818
서초구,모드뜨레,서울특별시 서초구 반포동 51-5,1.17E+11,서울특별시 서초구 서초중앙로,서울특별시 서초구 서초중앙로 217,127.0116151,37.50104307
서초구,부나빈,서울특별시 서초구 우면동 753,1.17E+11,서울특별시 서초구 양재대로2길,서울특별시 서초구 양재대로2길 109,127.0137673,37.45605326
서초구,커피마마,서울특별시 서초구 방배동 444-1,1.17E+11,서울특별시 서초구 방배천로,서울특별시 서초구 방배천로 19,126.9822707,37.47822252
서초구,비지엠커피,서울특별시 서초구 방배동 467-3,1.17E+11,서울특별시 서초구 청두곶3길,서울특별시 서초구 청두곶3길 22,126.9840032,37.47886816
서초구,cafe내자리,서울특별시 서초구 서초동 1303-10,1.17E+11,서울특별시 서초구 사평대로56길,서울특별시 서초구 사평대로56길 7,127.0235525,37.50321477
서초구,카페정이든,서울특별시 서초구 잠원동 70-2,1.17E+11,서울특별시 서초구 잠원로,서울특별시 서초구 잠원로 51,127.0074239,37.50923454
서초구,미스터리룸이스케이프,서울특별시 서초구 서초동 1308-10,1.17E+11,서울특별시 서초구 서초대로77길,서울특별시 서초구 서초대로77길 37,127.0250858,37.50098381
서초구,심포니오브,서울특별시 서초구 반포동 107-80,1.17E+11,서울특별시 서초구 사평대로18길,서울특별시 서초구 사평대로18길 38,126.9965263,37.4977892
서초구,오타르,서울특별시 서초구 서초동 1306-8,1.17E+11,서울특별시 서초구 강남대로,서울특별시 서초구 강남대로 415,127.0263258,37.49955235
서초구,헬무트,서울특별시 서초구 방배동 453-22,1.17E+11,서울특별시 서초구 방배천로6길,서울특별시 서초구 방배천로6길 3-10,126.9828589,37.47987651
서초구,카페자스,서울특별시 서초구 우면동 687-2,1.17E+11,서울특별시 서초구 성촌1길,서울특별시 서초구 성촌1길 6,127.0223886,37.4658203
서초구,EDIYACOFFEE,서울특별시 서초구 방배동 773-17,1.17E+11,서울특별시 서초구 방배로,서울특별시 서초구 방배로 234,126.9899033,37.49411954
서초구,블레스유커피,서울특별시 서초구 방배동 825-1,1.17E+11,서울특별시 서초구 동광로,서울특별시 서초구 동광로 18,126.9847357,37.49074134
서초구,갤러리케이,서울특별시 서초구 우면동 74-17,1.17E+11,서울특별시 서초구 바우뫼로9길,서울특별시 서초구 바우뫼로9길 55,127.0241867,37.47272826
서초구,카페카페,서울특별시 서초구 방배동 815-3,1.17E+11,서울특별시 서초구 방배로33길,서울특별시 서초구 방배로33길 15,126.9899012,37.49174975
서초구,시티갤러리카페,서울특별시 서초구 서초동 1588-12,1.17E+11,서울특별시 서초구 반포대로12길,서울특별시 서초구 반포대로12길 49,127.0139711,37.48528529
서초구,레드닷커피,서울특별시 서초구 양재동 16-34,1.17E+11,서울특별시 서초구 논현로31길,서울특별시 서초구 논현로31길 64,127.0402816,37.48012263
서초구,모호,서울특별시 서초구 양재동 117-2,1.17E+11,서울특별시 서초구 양재천로7길,서울특별시 서초구 양재천로7길 1,127.0360487,37.47428535
서초구,토즈모임센터,서울특별시 서초구 서초동 1657-5,1.17E+11,서울특별시 서초구 서초중앙로,서울특별시 서초구 서초중앙로 118,127.014217,37.49238766
서초구,셀독24스터디카페,서울특별시 서초구 반포동 938,1.17E+11,서울특별시 서초구 신반포로,서울특별시 서초구 신반포로 49,126.9900437,37.50216714
서초구,RANA,서울특별시 서초구 서초동 1550-1,1.17E+11,서울특별시 서초구 서초대로42길,서울특별시 서초구 서초대로42길 41,127.0093932,37.49031092
서초구,에이원텔레콤,서울특별시 서초구 방배동 813-7,1.17E+11,서울특별시 서초구 동광로,서울특별시 서초구 동광로 70,126.9902518,37.49259073
서초구,도어이스케이프,서울특별시 서초구 서초동 1302-24,1.17E+11,서울특별시 서초구 사평대로,서울특별시 서초구 사평대로 360,127.0223834,37.50353849
서초구,스타벅스,서울특별시 서초구 잠원동 70-2,1.17E+11,서울특별시 서초구 잠원로,서울특별시 서초구 잠원로 51,127.0074239,37.50923454
서초구,bluetable,서울특별시 서초구 반포동 18-4,1.17E+11,서울특별시 서초구 신반포로,서울특별시 서초구 신반포로 100,126.9956751,37.50308016
서초구,커피라보,서울특별시 서초구 반포동 60-4,1.17E+11,서울특별시 서초구 서초중앙로29길,서울특별시 서초구 서초중앙로29길 28,127.0086888,37.49996432
서초구,방배동커피볶는집일리,서울특별시 서초구 방배동 935-27,1.17E+11,서울특별시 서초구 서초대로24길,서울특별시 서초구 서초대로24길 25,126.9937513,37.4863042
서초구,크라스플러스,서울특별시 서초구 양재동 348-5,1.17E+11,서울특별시 서초구 강남대로8길,서울특별시 서초구 강남대로8길 16-17,127.0426923,37.46751834
서초구,카페,서울특별시 서초구 방배동 1027-4,1.17E+11,서울특별시 서초구 남부순환로,서울특별시 서초구 남부순환로 2265,126.9999003,37.47459763
서초구,할루카연구소,서울특별시 서초구 양재동 120-10,1.17E+11,서울특별시 서초구 양재천로11길,서울특별시 서초구 양재천로11길 12,127.036489,37.47521703
서초구,투비,서울특별시 서초구 양재동 334-7,1.17E+11,서울특별시 서초구 강남대로8길,서울특별시 서초구 강남대로8길 65-4,127.0439644,37.46971821
서초구,블루오파스타,서울특별시 서초구 서초동 1306-1,1.17E+11,서울특별시 서초구 강남대로65길,서울특별시 서초구 강남대로65길 1,127.0258838,37.50049482
서초구,더치빈,서울특별시 서초구 우면동 686,1.17E+11,서울특별시 서초구 성촌1길,서울특별시 서초구 성촌1길 26,127.0213541,37.46539725
서초구,테라스,서울특별시 서초구 양재동 340-3,1.17E+11,서울특별시 서초구 강남대로8길,서울특별시 서초구 강남대로8길 40-13,127.0433739,37.46903764
서초구,도티,서울특별시 서초구 반포동 708-2,1.17E+11,서울특별시 서초구 사평대로57길,서울특별시 서초구 사평대로57길 139,127.0205345,37.51000175
서초구,카페드메이,서울특별시 서초구 양재동 255-10,1.17E+11,서울특별시 서초구 언남길,서울특별시 서초구 언남길 43,127.0422696,37.47318258
서초구,더진국,서울특별시 서초구 방배동 760-2,1.17E+11,서울특별시 서초구 방배중앙로,서울특별시 서초구 방배중앙로 188,126.9858677,37.49567082
서초구,스타벅스서초파라곤점,서울특별시 서초구 서초동 1327-29,1.17E+11,서울특별시 서초구 서초대로74길,서울특별시 서초구 서초대로74길 29,127.0274035,37.49493882
서초구,한스펌킨,서울특별시 서초구 양재동 98-3,1.17E+11,서울특별시 서초구 양재천로,서울특별시 서초구 양재천로 97,127.0398677,37.4762357
서초구,해바라기,서울특별시 서초구 내곡동 1-281,1.17E+11,서울특별시 서초구 신흥말길,서울특별시 서초구 신흥말길 27-5,127.0822142,37.45821756
서초구,룰커피,서울특별시 서초구 서초동 1484-12,1.17E+11,서울특별시 서초구 반포대로7길,서울특별시 서초구 반포대로7길 16,127.0110577,37.48242261
서초구,할리스커피,서울특별시 서초구 반포동 817,1.17E+11,서울특별시 서초구 신반포로,서울특별시 서초구 신반포로 15,126.9868646,37.50140105
서초구,주커피,서울특별시 서초구 서초동 1329-6,1.17E+11,서울특별시 서초구 강남대로,서울특별시 서초구 강남대로 345,127.0291381,37.49372765
서초구,스타벅스,서울특별시 서초구 양재동 4-3,1.17E+11,서울특별시 서초구 논현로,서울특별시 서초구 논현로 139,127.0425756,37.48198841
서초구,메종라떼,서울특별시 서초구 서초동 1685-8,1.17E+11,서울특별시 서초구 서초중앙로24길,서울특별시 서초구 서초중앙로24길 27,127.0163934,37.49544236
서초구,카페쟈스,서울특별시 서초구 서초동 1552-19,1.17E+11,서울특별시 서초구 서초대로46길,서울특별시 서초구 서초대로46길 20,127.0099984,37.49157747
서초구,푸드까페다와,서울특별시 서초구 우면동 721-1,1.17E+11,서울특별시 서초구 태봉로,서울특별시 서초구 태봉로 70,127.0255706,37.46453103
서초구,딘앤델루카,서울특별시 서초구 반포동 19-3,1.17E+11,서울특별시 서초구 신반포로,서울특별시 서초구 신반포로 176,127.0023932,37.50393001
서초구,그라시아커피,서울특별시 서초구 방배동 932-34,1.17E+11,서울특별시 서초구 방배로19길,서울특별시 서초구 방배로19길 40,126.9927881,37.48477321
서초구,리디아,서울특별시 서초구 내곡동 181-5,1.17E+11,서울특별시 서초구 홍씨마을길,서울특별시 서초구 홍씨마을길 3,127.0653444,37.45501271
서초구,폴바셋,서울특별시 서초구 서초동 1715-9,1.17E+11,서울특별시 서초구 서초대로,서울특별시 서초구 서초대로 287,127.0130005,37.4937471
서초구,이디야커피,서울특별시 서초구 반포동 19-11,1.17E+11,서울특별시 서초구 신반포로,서울특별시 서초구 신반포로 188,127.0048767,37.50343736
서초구,카페38도씨,서울특별시 서초구 방배동 874-14,1.17E+11,서울특별시 서초구 방배로,서울특별시 서초구 방배로 165,126.9927978,37.48826037
서초구,스타벅스,서울특별시 서초구 서초동 1303-16,1.17E+11,서울특별시 서초구 서초대로77길,서울특별시 서초구 서초대로77길 62,127.0238869,37.50272196
서초구,차미리,서울특별시 서초구 방배동 978-34,1.17E+11,서울특별시 서초구 효령로,서울특별시 서초구 효령로 83,126.9933111,37.48034447
서초구,할리스커피,서울특별시 서초구 원지동 10-16,1.17E+11,서울특별시 서초구 양재대로12길,서울특별시 서초구 양재대로12길 73-71,127.0427135,37.45965224
서초구,TODAH,서울특별시 서초구 우면동 176-5,1.17E+11,서울특별시 서초구 성촌6길,서울특별시 서초구 성촌6길 39,127.0226153,37.46751617
서초구,54계단커피,서울특별시 서초구 방배동 488-1,1.17E+11,서울특별시 서초구 효령로2길,서울특별시 서초구 효령로2길 128,126.9930726,37.47452162
서초구,CREMADORO,서울특별시 서초구 우면동 686-2,1.17E+11,서울특별시 서초구 성촌1길,서울특별시 서초구 성촌1길 20,127.0216806,37.46549907
서초구,CafeRoyalNature,서울특별시 서초구 방배동 816-17,1.17E+11,서울특별시 서초구 방배로31길,서울특별시 서초구 방배로31길 28,126.990019,37.49056137
서초구,카페믹스앤베이크,서울특별시 서초구 서초동 1328-10,1.17E+11,서울특별시 서초구 강남대로,서울특별시 서초구 강남대로 363,127.0284418,37.49510054
서초구,고요컴퍼니,서울특별시 서초구 반포동 94-5,1.17E+11,서울특별시 서초구 서래로,서울특별시 서초구 서래로 47,126.9981026,37.49915416
서초구,EAT,서울특별시 서초구 서초동 1343-4,1.17E+11,서울특별시 서초구 효령로74길,서울특별시 서초구 효령로74길 4,127.0265016,37.48774997
서초구,엠아이커피,서울특별시 서초구 방배동 850-34,1.17E+11,서울특별시 서초구 서초대로25길,서울특별시 서초구 서초대로25길 32,126.9936432,37.48930379
서초구,카페수프레모,서울특별시 서초구 서초동 1639-7,1.17E+11,서울특별시 서초구 서초대로60길,서울특별시 서초구 서초대로60길 9-22,127.018701,37.49453346
서초구,카페보니또,서울특별시 서초구 원지동 385-6,1.17E+11,서울특별시 서초구 청계산로,서울특별시 서초구 청계산로 241,127.0582334,37.44431468
서초구,추억속의그다방,서울특별시 서초구 서초동 1658-4,1.17E+11,서울특별시 서초구 서초대로52길,서울특별시 서초구 서초대로52길 25,127.0148022,37.49260879
서초구,더착한커피,서울특별시 서초구 반포동 19-4,1.17E+11,서울특별시 서초구 신반포로,서울특별시 서초구 신반포로 194,127.0068163,37.50642716
서초구,CNN카페세빛섬점,서울특별시 서초구 반포동 650,1.17E+11,서울특별시 서초구 올림픽대로,서울특별시 서초구 올림픽대로 2085-14,126.9959457,37.51242636
서초구,Cafedecen,서울특별시 서초구 서초동 1462-16,1.17E+11,서울특별시 서초구 반포대로,서울특별시 서초구 반포대로 13,127.011879,37.48187083
서초구,커피에반하다,서울특별시 서초구 서초동 1315,1.17E+11,서울특별시 서초구 서초대로,서울특별시 서초구 서초대로 385,127.0236438,37.49707034
서초구,카페늘봄,서울특별시 서초구 서초동 380,1.17E+11,서울특별시 서초구 남부순환로340길,서울특별시 서초구 남부순환로340길 15,127.0249927,37.48204285
서초구,하우스칼라,서울특별시 서초구 반포동 19-4,1.17E+11,서울특별시 서초구 신반포로,서울특별시 서초구 신반포로 194,127.0068163,37.50642716
서초구,고메,서울특별시 서초구 원지동 63,1.17E+11,서울특별시 서초구 양재대로12길,서울특별시 서초구 양재대로12길 74,127.0427995,37.45202094
서초구,카페커먼띵스,서울특별시 서초구 서초동 1432-24,1.17E+11,서울특별시 서초구 남부순환로339길,서울특별시 서초구 남부순환로339길 25,127.0222174,37.48417344
서초구,우면동다방,서울특별시 서초구 우면동 686,1.17E+11,서울특별시 서초구 성촌1길,서울특별시 서초구 성촌1길 26,127.0213541,37.46539725
서초구,berry,서울특별시 서초구 서초동 1706-9,1.17E+11,서울특별시 서초구 법원로3길,서울특별시 서초구 법원로3길 6-1,127.0095968,37.49372763
서초구,한화호텔앤드리조트대검찰청카페,서울특별시 서초구 서초동 1730-1,1.17E+11,서울특별시 서초구 반포대로,서울특별시 서초구 반포대로 157,127.0061534,37.49414924
서초구,카페박마담,서울특별시 서초구 서초동 1445-3,1.17E+11,서울특별시 서초구 효령로,서울특별시 서초구 효령로 304,127.0177891,37.48472239
서초구,투썸플레이스,서울특별시 서초구 방배동 2724,1.17E+11,서울특별시 서초구 과천대로,서울특별시 서초구 과천대로 870-13,126.987969,37.46900861
서초구,cafe커피콩,서울특별시 서초구 방배동 905-4,1.17E+11,서울특별시 서초구 방배로,서울특별시 서초구 방배로 116,126.9958888,37.48458335
서초구,모모랑,서울특별시 서초구 서초동 1606-5,1.17E+11,서울특별시 서초구 효령로,서울특별시 서초구 효령로 359,127.0231935,37.48736224
서초구,담장너머카페,서울특별시 서초구 서초동 1665-8,1.17E+11,서울특별시 서초구 사임당로17길,서울특별시 서초구 사임당로17길 65,127.0166437,37.49187626
서초구,바리스타마르코공간,서울특별시 서초구 서초동 1330-16,1.17E+11,서울특별시 서초구 서초대로78길,서울특별시 서초구 서초대로78길 44,127.0284594,37.49374009
서초구,마이쥬스,서울특별시 서초구 양재동 15-7,1.17E+11,서울특별시 서초구 바우뫼로37길,서울특별시 서초구 바우뫼로37길 56,127.0383153,37.48091759
서초구,SICILY,서울특별시 서초구 반포동 90-11,1.17E+11,서울특별시 서초구 서래로,서울특별시 서초구 서래로 26,126.9984889,37.4973283
서초구,아삽,서울특별시 서초구 서초동 1617-38,1.17E+11,서울특별시 서초구 서초중앙로8길,서울특별시 서초구 서초중앙로8길 111,127.0216463,37.48721428
서초구,토스트가마시는커피,서울특별시 서초구 방배동 874-7,1.17E+11,서울특별시 서초구 서초대로,서울특별시 서초구 서초대로 97,126.9928392,37.48770207
서초구,시스템,서울특별시 서초구 서초동 1618-24,1.17E+11,서울특별시 서초구 서초중앙로8길,서울특별시 서초구 서초중앙로8길 89-2,127.0204605,37.48709633
서초구,카페무세띠,서울특별시 서초구 방배동 922-1,1.17E+11,서울특별시 서초구 방배로15길,서울특별시 서초구 방배로15길 33,126.9939688,37.48357585
서초구,달콤커피,서울특별시 서초구 잠원동 12-25,1.17E+11,서울특별시 서초구 강남대로,서울특별시 서초구 강남대로 621,127.0187669,37.51715045
서초구,알레그리아커피로스터스,서울특별시 서초구 서초동 1344-13,1.17E+11,서울특별시 서초구 효령로72길,서울특별시 서초구 효령로72길 57,127.0284676,37.48700026
서초구,KT,서울특별시 서초구 우면동 17,1.17E+11,서울특별시 서초구 태봉로,서울특별시 서초구 태봉로 151,127.0293378,37.47130197
서초구,토즈모임센터,서울특별시 서초구 양재동 12-7,1.17E+11,서울특별시 서초구 남부순환로350길,서울특별시 서초구 남부순환로350길 12,127.0354495,37.48396684
서초구,JULIETTE,서울특별시 서초구 반포동 84-2,1.17E+11,서울특별시 서초구 동광로45길,서울특별시 서초구 동광로45길 12,127.0010368,37.49452958
서초구,CAFE.W,서울특별시 서초구 방배동 794-15,1.17E+11,서울특별시 서초구 방배로37길,서울특별시 서초구 방배로37길 27,126.9882648,37.49318644
서초구,행복자,서울특별시 서초구 서초동 1562-2,1.17E+11,서울특별시 서초구 사임당로1길,서울특별시 서초구 사임당로1길 58,127.0123073,37.48970458
서초구,공차,서울특별시 서초구 반포동 650,1.17E+11,서울특별시 서초구 올림픽대로,서울특별시 서초구 올림픽대로 2085-14,126.9959457,37.51242636
서초구,엔제이파크,서울특별시 서초구 방배동 855-20,1.17E+11,서울특별시 서초구 방배로27길,서울특별시 서초구 방배로27길 43,126.9898704,37.48900127
서초구,굿애프터눈,서울특별시 서초구 반포동 2-8,1.17E+11,서울특별시 서초구 신반포로15길,서울특별시 서초구 신반포로15길 29,126.9946818,37.5054595
서초구,DAILY3,서울특별시 서초구 서초동 1647-2,1.17E+11,서울특별시 서초구 사임당로,서울특별시 서초구 사임당로 105,127.0212185,37.49053564
서초구,윌라라커피,서울특별시 서초구 서초동 1344-13,1.17E+11,서울특별시 서초구 효령로72길,서울특별시 서초구 효령로72길 57,127.0284676,37.48700026
서초구,폴바셋,서울특별시 서초구 반포동 19-3,1.17E+11,서울특별시 서초구 신반포로,서울특별시 서초구 신반포로 176,127.0023932,37.50393001
서초구,오설록,서울특별시 서초구 서초동 1328,1.17E+11,서울특별시 서초구 강남대로,서울특별시 서초구 강남대로 373,127.0279895,37.49597084
서초구,할리스커피,서울특별시 서초구 서초동 1641-10,1.17E+11,서울특별시 서초구 사임당로23길,서울특별시 서초구 사임당로23길 27,127.0202733,37.49190642
서초구,새로운교회에스카페,서울특별시 서초구 우면동 142,1.17E+11,서울특별시 서초구 태봉로,서울특별시 서초구 태봉로 114,127.028334,37.46587835
서초구,컵오브커피,서울특별시 서초구 방배동 919-1,1.17E+11,서울특별시 서초구 방배중앙로,서울특별시 서초구 방배중앙로 30,126.9923065,37.48274173
서초구,주스집,서울특별시 서초구 양재동 313,1.17E+11,서울특별시 서초구 강남대로18길,서울특별시 서초구 강남대로18길 20,127.040048,37.47186702
서초구,Poseidon,서울특별시 서초구 서초동 1575-3,1.17E+11,서울특별시 서초구 서초중앙로,서울특별시 서초구 서초중앙로 113,127.0137264,37.49186095
서초구,HYGGE,서울특별시 서초구 반포동 1053,1.17E+11,서울특별시 서초구 신반포로,서울특별시 서초구 신반포로 22,126.9871619,37.50116032
서초구,할리스커피,서울특별시 서초구 서초동 1364-47,1.17E+11,서울특별시 서초구 남부순환로347길,서울특별시 서초구 남부순환로347길 13,127.0316714,37.48495413
서초구,올리버스윗,서울특별시 서초구 반포동 612-140,1.17E+11,서울특별시 서초구 사평대로8길,서울특별시 서초구 사평대로8길 7,126.9915514,37.49770179
서초구,DNCCOFFEE,서울특별시 서초구 양재동 257-5,1.17E+11,서울특별시 서초구 마방로6길,서울특별시 서초구 마방로6길 28,127.0425129,37.4745001
서초구,CAFEKOHI,서울특별시 서초구 서초동 1474-6,1.17E+11,서울특별시 서초구 반포대로5길,서울특별시 서초구 반포대로5길 3,127.011551,37.48187709
서초구,두콩상회,서울특별시 서초구 서초동 1327,1.17E+11,서울특별시 서초구 서초대로74길,서울특별시 서초구 서초대로74길 23,127.027078,37.49562094
서초구,EFEKA,서울특별시 서초구 반포동 929,1.17E+11,서울특별시 서초구 신반포로,서울특별시 서초구 신반포로 41,126.9890174,37.50195112
서초구,울트라커피,서울특별시 서초구 방배동 1024-4,1.17E+11,서울특별시 서초구 방배로,서울특별시 서초구 방배로 28,127.0006073,37.47754106
서초구,투디,서울특별시 서초구 서초동 1642-1,1.17E+11,서울특별시 서초구 사임당로17길,서울특별시 서초구 사임당로17길 68,127.0169713,37.49190602
서초구,Threeofcups,서울특별시 서초구 서초동 1330-3,1.17E+11,서울특별시 서초구 서초대로74길,서울특별시 서초구 서초대로74길 45,127.0280872,37.49366495
서초구,디오토스테이션,서울특별시 서초구 서초동 1631-4,1.17E+11,서울특별시 서초구 사임당로,서울특별시 서초구 사임당로 108,127.0217194,37.49027848
서초구,이디야커피숍,서울특별시 서초구 양재동 230,1.17E+11,서울특별시 서초구 청계산로,서울특별시 서초구 청계산로 10,127.0435124,37.46348822
서초구,플로리스타커피바,서울특별시 서초구 양재동 285-3,1.17E+11,서울특별시 서초구 논현로11길,서울특별시 서초구 논현로11길 6-23,127.047023,37.47456359
서초구,한조와태연,서울특별시 서초구 반포동 722-36,1.17E+11,서울특별시 서초구 사평대로57길,서울특별시 서초구 사평대로57길 96,127.0219009,37.50844524
서초구,yourmycoffeebrewers,서울특별시 서초구 양재동 69-5,1.17E+11,서울특별시 서초구 바우뫼로33길,서울특별시 서초구 바우뫼로33길 7-14,127.0368193,37.4776706
서초구,더카페,서울특별시 서초구 잠원동 70-2,1.17E+11,서울특별시 서초구 잠원로,서울특별시 서초구 잠원로 51,127.0074239,37.50923454
서초구,이디야커피,서울특별시 서초구 양재동 81-1,1.17E+11,서울특별시 서초구 바우뫼로,서울특별시 서초구 바우뫼로 180,127.0398079,37.4782626
서초구,카페하트,서울특별시 서초구 내곡동 375,1.17E+11,서울특별시 서초구 헌릉로,서울특별시 서초구 헌릉로 260,127.0688729,37.45576141
서초구,Ph.D,서울특별시 서초구 서초동 1490-33,1.17E+11,서울특별시 서초구 효령로,서울특별시 서초구 효령로 177,127.0033754,37.48279056
서초구,구스띠모,서울특별시 서초구 양재동 209-5,1.17E+11,서울특별시 서초구 매헌로,서울특별시 서초구 매헌로 42,127.0343858,37.4646935
서초구,로뎀나무숲,서울특별시 서초구 방배동 756-6,1.17E+11,서울특별시 서초구 방배로45길,서울특별시 서초구 방배로45길 16,126.9864599,37.49703649
서초구,타임,서울특별시 서초구 서초동 1445-3,1.17E+11,서울특별시 서초구 효령로,서울특별시 서초구 효령로 304,127.0177891,37.48472239
서초구,DOCKING,서울특별시 서초구 양재동 280-10,1.17E+11,서울특별시 서초구 동산로19길,서울특별시 서초구 동산로19길 54,127.0456951,37.47496736
서초구,아마스빈,서울특별시 서초구 방배동 910-7,1.17E+11,서울특별시 서초구 방배로,서울특별시 서초구 방배로 83-14,126.9965189,37.482282
서초구,라율카페,서울특별시 서초구 서초동 1451-38,1.17E+11,서울특별시 서초구 반포대로,서울특별시 서초구 반포대로 20,127.0125952,37.48243547
서초구,매머드익스프레스,서울특별시 서초구 서초동 1573-10,1.17E+11,서울특별시 서초구 서초중앙로,서울특별시 서초구 서초중앙로 125,127.013406,37.49300262
서초구,LUMINO,서울특별시 서초구 서초동 1349-22,1.17E+11,서울특별시 서초구 효령로72길,서울특별시 서초구 효령로72길 42,127.0273076,37.4866393
서초구,커피하우스,서울특별시 서초구 방배동 438-24,1.17E+11,서울특별시 서초구 동작대로,서울특별시 서초구 동작대로 86,126.9824268,37.48422488
서초구,커피빈,서울특별시 서초구 서초동 1361-1,1.17E+11,서울특별시 서초구 강남대로,서울특별시 서초구 강남대로 267,127.0323214,37.48715803
서초구,기다려빵아,서울특별시 서초구 양재동 232,1.17E+11,서울특별시 서초구 강남대로,서울특별시 서초구 강남대로 27,127.0391217,37.46827328
서초구,공유,서울특별시 서초구 서초동 1319-11,1.17E+11,서울특별시 서초구 강남대로,서울특별시 서초구 강남대로 381,127.0276749,37.49668009
서초구,라온스포츠,서울특별시 서초구 서초동 1685-8,1.17E+11,서울특별시 서초구 서초중앙로24길,서울특별시 서초구 서초중앙로24길 27,127.0163934,37.49544236
서초구,커피앳웍스,서울특별시 서초구 서초동 1366-5,1.17E+11,서울특별시 서초구 강남대로,서울특별시 서초구 강남대로 241,127.0331072,37.4849749
서초구,고디바삼성타운,서울특별시 서초구 서초동 1327-2,1.17E+11,서울특별시 서초구 서초대로78길,서울특별시 서초구 서초대로78길 22,127.0275281,37.49579585
서초구,엔제리너스,서울특별시 서초구 서초동 1688-3,1.17E+11,서울특별시 서초구 서초대로,서울특별시 서초구 서초대로 351,127.0196572,37.49578485
서초구,커피드슈,서울특별시 서초구 잠원동 37-14,1.17E+11,서울특별시 서초구 신반포로,서울특별시 서초구 신반포로 337,127.0203967,37.51102781
서초구,하우스까페,서울특별시 서초구 내곡동 1-392,1.17E+11,서울특별시 서초구 신흥안길,서울특별시 서초구 신흥안길 40-27,127.0766981,37.45455231
서초구,커피베이,서울특별시 서초구 서초동 1631-4,1.17E+11,서울특별시 서초구 사임당로,서울특별시 서초구 사임당로 108,127.0217194,37.49027848
서초구,커피엘사,서울특별시 서초구 양재동 267-4,1.17E+11,서울특별시 서초구 마방로6길,서울특별시 서초구 마방로6길 7-46,127.0434536,37.47608457
서초구,이디야커피,서울특별시 서초구 방배동 898-1,1.17E+11,서울특별시 서초구 서초대로,서울특별시 서초구 서초대로 108,126.9941867,37.48756037
서초구,디저트39,서울특별시 서초구 서초동 1327,1.17E+11,서울특별시 서초구 서초대로74길,서울특별시 서초구 서초대로74길 23,127.027078,37.49562094
서초구,HELMUT,서울특별시 서초구 방배동 455-15,1.17E+11,서울특별시 서초구 방배천로4안길,서울특별시 서초구 방배천로4안길 61,126.9832315,37.48074473
서초구,킹콩점프우면점,서울특별시 서초구 우면동 64,1.17E+11,서울특별시 서초구 바우뫼로7길,서울특별시 서초구 바우뫼로7길 7,127.0249366,37.47069806
서초구,스미스바니스페셜티커피1호,서울특별시 서초구 양재동 261-3,1.17E+11,서울특별시 서초구 마방로,서울특별시 서초구 마방로 20,127.0408521,37.47440553
서초구,누보마땡,서울특별시 서초구 서초동 1446-11,1.17E+11,서울특별시 서초구 서초중앙로,서울특별시 서초구 서초중앙로 15,127.0156294,37.48300142
서초구,커피지아카페,서울특별시 서초구 양재동 232,1.17E+11,서울특별시 서초구 강남대로,서울특별시 서초구 강남대로 27,127.0391217,37.46827328
서초구,노아스로스팅,서울특별시 서초구 잠원동 27-11,1.17E+11,서울특별시 서초구 강남대로95길,서울특별시 서초구 강남대로95길 12,127.0191256,37.51394568
서초구,퀴즈노스,서울특별시 서초구 서초동 1457-2,1.17E+11,서울특별시 서초구 효령로,서울특별시 서초구 효령로 276,127.0144353,37.4843791
서초구,스타벅스,서울특별시 서초구 반포동 19-3,1.17E+11,서울특별시 서초구 신반포로,서울특별시 서초구 신반포로 176,127.0023932,37.50393001
서초구,공차,서울특별시 서초구 반포동 505,1.17E+11,서울특별시 서초구 반포대로,서울특별시 서초구 반포대로 222,127.0058407,37.50238224
서초구,카페,서울특별시 서초구 서초동 1317-14,1.17E+11,서울특별시 서초구 서초대로77길,서울특별시 서초구 서초대로77길 5,127.0263754,37.49834535
서초구,가람커피로스터스,서울특별시 서초구 신원동 445-4,1.17E+11,서울특별시 서초구 본마을길,서울특별시 서초구 본마을길 31,127.0535303,37.45432398
서초구,커피집양재에이티점,서울특별시 서초구 양재동 327-3,1.17E+11,서울특별시 서초구 동산로,서울특별시 서초구 동산로 10,127.0408967,37.4691437
서초구,카페엘리,서울특별시 서초구 양재동 263-8,1.17E+11,서울특별시 서초구 마방로10길,서울특별시 서초구 마방로10길 12,127.0433793,37.47659757
서초구,소버스,서울특별시 서초구 방배동 848-11,1.17E+11,서울특별시 서초구 방배로26길,서울특별시 서초구 방배로26길 71-5,126.9962129,37.49078536
서초구,청춘커피,서울특별시 서초구 반포동 94-17,1.17E+11,서울특별시 서초구 사평대로22길,서울특별시 서초구 사평대로22길 17,126.9978589,37.49877365
서초구,세르지오타키니,서울특별시 서초구 양재동 247-4,1.17E+11,서울특별시 서초구 마방로4길,서울특별시 서초구 마방로4길 16-9,127.0407417,37.47331435
서초구,학화호두과자,서울특별시 서초구 양재동 82-2,1.17E+11,서울특별시 서초구 바우뫼로,서울특별시 서초구 바우뫼로 188,127.0405225,37.47896222
서초구,더메디라운지,서울특별시 서초구 잠원동 6-1,1.17E+11,서울특별시 서초구 강남대로107길,서울특별시 서초구 강남대로107길 6,127.0180697,37.5185593
서초구,CAFEB,서울특별시 서초구 반포동 19-3,1.17E+11,서울특별시 서초구 신반포로,서울특별시 서초구 신반포로 176,127.0023932,37.50393001
서초구,리엘베이킹,서울특별시 서초구 방배동 888-38,1.17E+11,서울특별시 서초구 방배로18길,서울특별시 서초구 방배로18길 91,126.9997325,37.48633697
서초구,만랩커피,서울특별시 서초구 방배동 866-10,1.17E+11,서울특별시 서초구 서초대로,서울특별시 서초구 서초대로 13,126.9838289,37.48589489
서초구,오십사계단커피,서울특별시 서초구 방배동 488-1,1.17E+11,서울특별시 서초구 효령로2길,서울특별시 서초구 효령로2길 128,126.9930726,37.47452162
서초구,카페101,서울특별시 서초구 양재동 217,1.17E+11,서울특별시 서초구 양재대로11길,서울특별시 서초구 양재대로11길 36,127.03446,37.46155842
서초구,붐커피,서울특별시 서초구 양재동 257-5,1.17E+11,서울특별시 서초구 마방로6길,서울특별시 서초구 마방로6길 28,127.0425129,37.4745001
서초구,TaimDish,서울특별시 서초구 우면동 59,1.17E+11,서울특별시 서초구 바우뫼로7길,서울특별시 서초구 바우뫼로7길 29,127.0243527,37.47126091
서초구,wonA커피,서울특별시 서초구 방배동 1021-17,1.17E+11,서울특별시 서초구 방배로8길,서울특별시 서초구 방배로8길 10-7,126.999593,37.47983918
서초구,에이원커피,서울특별시 서초구 서초동 1717-10,1.17E+11,서울특별시 서초구 서초대로,서울특별시 서초구 서초대로 255,127.0097455,37.49274673
서초구,ceccoBeppe카페,서울특별시 서초구 서초동 1540-3,1.17E+11,서울특별시 서초구 서초대로40길,서울특별시 서초구 서초대로40길 49,127.0082175,37.48942704
서초구,한우리보호작업장,서울특별시 서초구 서초동 1376-3,1.17E+11,서울특별시 서초구 남부순환로,서울특별시 서초구 남부순환로 2584,127.0326845,37.48355678
서초구,글로리아진스커피,서울특별시 서초구 우면동 685,1.17E+11,서울특별시 서초구 성촌길,서울특별시 서초구 성촌길 67,127.0212952,37.46558598
서초구,코믹베어,서울특별시 서초구 방배동 910-9,1.17E+11,서울특별시 서초구 방배로,서울특별시 서초구 방배로 87,126.9968935,37.48216804
서초구,모두커피,서울특별시 서초구 서초동 1319-13,1.17E+11,서울특별시 서초구 강남대로,서울특별시 서초구 강남대로 375,127.0277913,37.49642875
서초구,에스키모하와이,서울특별시 서초구 반포동 128-4,1.17E+11,서울특별시 서초구 신반포로,서울특별시 서초구 신반포로 186-2,127.0050321,37.50621391
서초구,CafeQuerenciaC&C,서울특별시 서초구 잠원동 69-12,1.17E+11,서울특별시 서초구 신반포로,서울특별시 서초구 신반포로 205,127.0064466,37.50701875
서초구,아트엘,서울특별시 서초구 방배동 900-37,1.17E+11,서울특별시 서초구 방배로20길,서울특별시 서초구 방배로20길 33,126.9967365,37.48630255
서초구,CAFEHERE,서울특별시 서초구 방배동 537-8,1.17E+11,서울특별시 서초구 효령로,서울특별시 서초구 효령로 46,126.9896496,37.47852913
서초구,폴바셋뉴코아강남점,서울특별시 서초구 잠원동 70-1,1.17E+11,서울특별시 서초구 잠원로,서울특별시 서초구 잠원로 69,127.006958,37.51024881
서초구,엠앤디,서울특별시 서초구 내곡동 6-42,1.17E+11,서울특별시 서초구 능안말1길,서울특별시 서초구 능안말1길 5-2,127.0668204,37.4553848
서초구,라리,서울특별시 서초구 서초동 1444-20,1.17E+11,서울특별시 서초구 서초중앙로2길,서울특별시 서초구 서초중앙로2길 37,127.0193567,37.48416775
서초구,주경자구름떡카페,서울특별시 서초구 방배동 814-21,1.17E+11,서울특별시 서초구 방배로33길,서울특별시 서초구 방배로33길 20,126.9895834,37.49183714
서초구,베키아에누보,서울특별시 서초구 반포동 19-3,1.17E+11,서울특별시 서초구 신반포로,서울특별시 서초구 신반포로 176,127.0023932,37.50393001
서초구,카페꿈틀서울시교육연수원점,서울특별시 서초구 방배동 630,1.17E+11,서울특별시 서초구 남부순환로,서울특별시 서초구 남부순환로 2248,126.9970952,37.47215001
서초구,담톨,서울특별시 서초구 우면동 686,1.17E+11,서울특별시 서초구 성촌1길,서울특별시 서초구 성촌1길 26,127.0213541,37.46539725
서초구,커피나무,서울특별시 서초구 방배동 751-6,1.17E+11,서울특별시 서초구 사평대로2길,서울특별시 서초구 사평대로2길 20,126.9858511,37.49773408
서초구,더카페교대역점,서울특별시 서초구 서초동 1669-11,1.17E+11,서울특별시 서초구 서초중앙로22길,서울특별시 서초구 서초중앙로22길 54,127.0168049,37.49338236
서초구,MMTH양재시민의숲,서울특별시 서초구 양재동 220-1,1.17E+11,서울특별시 서초구 매헌로1길,서울특별시 서초구 매헌로1길 30,127.0340779,37.46226713
서초구,CAFEMIN,서울특별시 서초구 양재동 274-4,1.17E+11,서울특별시 서초구 마방로10길,서울특별시 서초구 마방로10길 34-2,127.0441555,37.47601817
서초구,CoffeeBlues,서울특별시 서초구 우면동 765,1.17E+11,서울특별시 서초구 양재대로2길,서울특별시 서초구 양재대로2길 100-61,127.0159206,37.45647668
서초구,ONES,서울특별시 서초구 서초동 1648-8,1.17E+11,서울특별시 서초구 사임당로,서울특별시 서초구 사임당로 101,127.0207793,37.49039684
서초구,퀸즈브라운,서울특별시 서초구 양재동 316-5,1.17E+11,서울특별시 서초구 마방로2길,서울특별시 서초구 마방로2길 82,127.0394952,37.47000635
서초구,하프카페,서울특별시 서초구 서초동 1316-29,1.17E+11,서울특별시 서초구 서초대로73길,서울특별시 서초구 서초대로73길 19,127.0252111,37.4982997
서초구,LOFT,서울특별시 서초구 방배동 910-13,1.17E+11,서울특별시 서초구 방배로,서울특별시 서초구 방배로 95,126.9963666,37.48267717
서초구,라일락휴게소,서울특별시 서초구 반포동 734-26,1.17E+11,서울특별시 서초구 사평대로55길,서울특별시 서초구 사평대로55길 47,127.0217401,37.50602909
서초구,구름비,서울특별시 서초구 서초동 1677-1,1.17E+11,서울특별시 서초구 서초대로,서울특별시 서초구 서초대로 334,127.018269,37.49471008
서초구,업셋upset,서울특별시 서초구 방배동 918-7,1.17E+11,서울특별시 서초구 방배중앙로,서울특별시 서초구 방배중앙로 8,126.9932692,37.48093881
서초구,브리즈,서울특별시 서초구 서초동 1588-12,1.17E+11,서울특별시 서초구 반포대로12길,서울특별시 서초구 반포대로12길 49,127.0139711,37.48528529
서초구,카페,서울특별시 서초구 잠원동 71-7,1.17E+11,서울특별시 서초구 신반포로23길,서울특별시 서초구 신반포로23길 78,127.0055887,37.51200335
서초구,DCOFFE,서울특별시 서초구 방배동 476-3,1.17E+11,서울특별시 서초구 남부순환로287길,서울특별시 서초구 남부순환로287길 42-3,126.9877986,37.47745004
서초구,이디야커피,서울특별시 서초구 방배동 773-17,1.17E+11,서울특별시 서초구 방배로,서울특별시 서초구 방배로 234,126.9899033,37.49411954
서초구,CARANdACHE,서울특별시 서초구 서초동 1348-10,1.17E+11,서울특별시 서초구 서운로11길,서울특별시 서초구 서운로11길 71,127.0261932,37.48625168
서초구,서울만남의광장휴게소TOMNTOMS,서울특별시 서초구 원지동 10-16,1.17E+11,서울특별시 서초구 양재대로12길,서울특별시 서초구 양재대로12길 73-71,127.0427135,37.45965224
서초구,커피사피엔스양재봉진점,서울특별시 서초구 양재동 377-4,1.17E+11,서울특별시 서초구 동산로,서울특별시 서초구 동산로 66,127.0459378,37.4718877
서초구,아베크,서울특별시 서초구 서초동 1302-7,1.17E+11,서울특별시 서초구 서운로26길,서울특별시 서초구 서운로26길 5,127.0223181,37.50247471
서초구,inercoffee,서울특별시 서초구 방배동 914-1,1.17E+11,서울특별시 서초구 효령로25길,서울특별시 서초구 효령로25길 24,126.9940891,37.48218925
서초구,CafeJ카페제이,서울특별시 서초구 방배동 783-24,1.17E+11,서울특별시 서초구 동작대로,서울특별시 서초구 동작대로 172,126.9831026,37.4919257
서초구,만랩커피,서울특별시 서초구 서초동 1656-13,1.17E+11,서울특별시 서초구 서초대로52길,서울특별시 서초구 서초대로52길 38,127.0145825,37.49211138
서초구,라이트업커피,서울특별시 서초구 서초동 1523-15,1.17E+11,서울특별시 서초구 반포대로21길,서울특별시 서초구 반포대로21길 53,127.0080426,37.48640703
서초구,아워헤르츠,서울특별시 서초구 서초동 1667-15,1.17E+11,서울특별시 서초구 서초대로58길,서울특별시 서초구 서초대로58길 36,127.017871,37.49314795
서초구,루카스카페&갤러리,서울특별시 서초구 반포동 107-45,1.17E+11,서울특별시 서초구 사평대로18길,서울특별시 서초구 사평대로18길 10,126.9955909,37.49838496
서초구,득,서울특별시 서초구 양재동 232,1.17E+11,서울특별시 서초구 강남대로,서울특별시 서초구 강남대로 27,127.0391217,37.46827328
서초구,카페뮤즈,서울특별시 서초구 방배동 983-3,1.17E+11,서울특별시 서초구 방배로10길,서울특별시 서초구 방배로10길 10-4,126.9985605,37.48095675
서초구,카페,서울특별시 서초구 방배동 869-8,1.17E+11,서울특별시 서초구 방배중앙로,서울특별시 서초구 방배중앙로 82,126.9894688,37.4869164
서초구,카페,서울특별시 서초구 잠원동 53,1.17E+11,서울특별시 서초구 잠원로12길,서울특별시 서초구 잠원로12길 4,127.012702,37.5181271
서초구,백로,서울특별시 서초구 방배동 867-14,1.17E+11,서울특별시 서초구 서초대로,서울특별시 서초구 서초대로 49-9,126.9877207,37.48657706
서초구,더치앤빈,서울특별시 서초구 방배동 751-4,1.17E+11,서울특별시 서초구 방배중앙로,서울특별시 서초구 방배중앙로 208,126.9853314,37.49769358
서초구,KEB하나은행XARTELivingdesign&cafe,서울특별시 서초구 방배동 725,1.17E+11,서울특별시 서초구 방배로,서울특별시 서초구 방배로 270,126.9886122,37.49761359
서초구,메가커피,서울특별시 서초구 방배동 441-1,1.17E+11,서울특별시 서초구 동작대로,서울특별시 서초구 동작대로 44,126.9821962,37.4803844
서초구,민석씨,서울특별시 서초구 방배동 880-14,1.17E+11,서울특별시 서초구 서초대로,서울특별시 서초구 서초대로 125,126.9959025,37.4886292
서초구,피오레버,서울특별시 서초구 서초동 1677-1,1.17E+11,서울특별시 서초구 서초대로,서울특별시 서초구 서초대로 334,127.018269,37.49471008
서초구,카페,서울특별시 서초구 서초동 1579-5,1.17E+11,서울특별시 서초구 사임당로,서울특별시 서초구 사임당로 31,127.0134689,37.48822755
서초구,자스아일랜드,서울특별시 서초구 서초동 1321-6,1.17E+11,서울특별시 서초구 서운로,서울특별시 서초구 서운로 138,127.0252291,37.49604722
서초구,디에스랩,서울특별시 서초구 방배동 851-6,1.17E+11,서울특별시 서초구 방배로,서울특별시 서초구 방배로 174,126.9930456,37.48917255
서초구,ITscafe+,서울특별시 서초구 서초동 1486-4,1.17E+11,서울특별시 서초구 효령로,서울특별시 서초구 효령로 218,127.007995,37.48316283
서초구,CoffeeBreakHagah,서울특별시 서초구 방배동 866-10,1.17E+11,서울특별시 서초구 서초대로,서울특별시 서초구 서초대로 13,126.9838289,37.48589489
서초구,BonneSanteCafe,서울특별시 서초구 반포동 723-21,1.17E+11,서울특별시 서초구 사평대로57길,서울특별시 서초구 사평대로57길 76,127.0222293,37.50754691
서초구,생활커피,서울특별시 서초구 양재동 232,1.17E+11,서울특별시 서초구 강남대로,서울특별시 서초구 강남대로 27,127.0391217,37.46827328
서초구,투썸플레이스,서울특별시 서초구 서초동 1355-19,1.17E+11,서울특별시 서초구 서운로,서울특별시 서초구 서운로 7,127.0293907,37.48469213
서초구,티에리스티스탠드,서울특별시 서초구 방배동 478-18,1.17E+11,서울특별시 서초구 남부순환로287길,서울특별시 서초구 남부순환로287길 9-1,126.9875091,37.4762852
서초구,커피그라운드,서울특별시 서초구 서초동 1337-4,1.17E+11,서울특별시 서초구 효령로77길,서울특별시 서초구 효령로77길 28,127.0290656,37.4914654
서초구,Sapper커피,서울특별시 서초구 방배동 951-11,1.17E+11,서울특별시 서초구 서초대로4길,서울특별시 서초구 서초대로4길 17,126.9854709,37.48487279
서초구,텐퍼센트스페셜티커피,서울특별시 서초구 서초동 1327,1.17E+11,서울특별시 서초구 서초대로74길,서울특별시 서초구 서초대로74길 23,127.027078,37.49562094
서초구,카페누투,서울특별시 서초구 서초동 1643-13,1.17E+11,서울특별시 서초구 사임당로19길,서울특별시 서초구 사임당로19길 28-3,127.0191414,37.49112212
서초구,에스프레소비비안,서울특별시 서초구 양재동 346-5,1.17E+11,서울특별시 서초구 강남대로6길,서울특별시 서초구 강남대로6길 47,127.0433868,37.46801954
서초구,투블레싱마켓,서울특별시 서초구 서초동 1639-1,1.17E+11,서울특별시 서초구 서초대로60길,서울특별시 서초구 서초대로60길 9-4,127.0182731,37.49439475
서초구,써니사이드키친,서울특별시 서초구 서초동 1434-12,1.17E+11,서울특별시 서초구 남부순환로337가길,서울특별시 서초구 남부순환로337가길 33,127.0234872,37.48391362
서초구,오베르디,서울특별시 서초구 방배동 781-1,1.17E+11,서울특별시 서초구 방배중앙로25길,서울특별시 서초구 방배중앙로25길 37,126.9839584,37.49386131
서초구,카페모아,서울특별시 서초구 방배동 511-69,1.17E+11,서울특별시 서초구 방배선행길,서울특별시 서초구 방배선행길 12,126.9837366,37.47350459
서초구,CAFEHO,서울특별시 서초구 서초동 1303-35,1.17E+11,서울특별시 서초구 강남대로,서울특별시 서초구 강남대로 455,127.0246988,37.50290888
서초구,커피나무,서울특별시 서초구 반포동 50-10,1.17E+11,서울특별시 서초구 서초중앙로31길,서울특별시 서초구 서초중앙로31길 6-9,127.0111816,37.50047178
서초구,커피레터,서울특별시 서초구 양재동 3-4,1.17E+11,서울특별시 서초구 바우뫼로43길,서울특별시 서초구 바우뫼로43길 56,127.0414766,37.48393479
서초구,싱글오커피LAB,서울특별시 서초구 양재동 5-21,1.17E+11,서울특별시 서초구 바우뫼로,서울특별시 서초구 바우뫼로 183,127.0398673,37.47892085
서초구,LeStudioBleu,서울특별시 서초구 우면동 786,1.17E+11,서울특별시 서초구 양재대로2길,서울특별시 서초구 양재대로2길 18,127.0235414,37.45975669
서초구,어딕티브,서울특별시 서초구 반포동 711-24,1.17E+11,서울특별시 서초구 주흥15길,서울특별시 서초구 주흥15길 5,127.0185897,37.50908456
서초구,커피빈,서울특별시 서초구 서초동 1657-5,1.17E+11,서울특별시 서초구 서초중앙로,서울특별시 서초구 서초중앙로 118,127.014217,37.49238766
서초구,쿨라,서울특별시 서초구 양재동 232,1.17E+11,서울특별시 서초구 강남대로,서울특별시 서초구 강남대로 27,127.0391217,37.46827328
서초구,좁은문끽다,서울특별시 서초구 양재동 2-12,1.17E+11,서울특별시 서초구 남부순환로364길,서울특별시 서초구 남부순환로364길 8-15,127.0397935,37.48468703
서초구,슬로시티,서울특별시 서초구 양재동 89-8,1.17E+11,서울특별시 서초구 양재천로,서울특별시 서초구 양재천로 135-8,127.0419554,37.47919911
서초구,카페1055,서울특별시 서초구 양재동 10-55,1.17E+11,서울특별시 서초구 남부순환로356길,서울특별시 서초구 남부순환로356길 52,127.0383055,37.48256645
서초구,FAMECOFFEE,서울특별시 서초구 서초동 1627-5,1.17E+11,서울특별시 서초구 사임당로12길,서울특별시 서초구 사임당로12길 17,127.0171549,37.48824926
서초구,쿠첸,서울특별시 서초구 반포동 90-10,1.17E+11,서울특별시 서초구 서래로,서울특별시 서초구 서래로 24,126.9984018,37.49707527
서초구,그램,서울특별시 서초구 양재동 3-19,1.17E+11,서울특별시 서초구 논현로31길,서울특별시 서초구 논현로31길 6,127.0422662,37.48231028
서초구,세븐스에비뉴,서울특별시 서초구 양재동 232,1.17E+11,서울특별시 서초구 강남대로,서울특별시 서초구 강남대로 27,127.0391217,37.46827328
서초구,cafe블리스9,서울특별시 서초구 양재동 2-30,1.17E+11,서울특별시 서초구 남부순환로364길,서울특별시 서초구 남부순환로364길 7-24,127.0412109,37.48437416
서초구,샌디,서울특별시 서초구 방배동 830-24,1.17E+11,서울특별시 서초구 방배중앙로15길,서울특별시 서초구 방배중앙로15길 2,126.9880792,37.48849937
서초구,켄드커피랩,서울특별시 서초구 방배동 475-31,1.17E+11,서울특별시 서초구 효령로,서울특별시 서초구 효령로 23-1,126.9871045,37.47777748
서초구,라이트업커피,서울특별시 서초구 서초동 1337-22,1.17E+11,서울특별시 서초구 강남대로,서울특별시 서초구 강남대로 321,127.0299576,37.49157185
서초구,블루이쉬브루커피,서울특별시 서초구 방배동 851-16,1.17E+11,서울특별시 서초구 서초대로25길,서울특별시 서초구 서초대로25길 51,126.9929679,37.48991075
서초구,아임바리스타,서울특별시 서초구 서초동 1357-65,1.17E+11,서울특별시 서초구 강남대로43길,서울특별시 서초구 강남대로43길 6,127.0318609,37.48779401
서초구,카페모브,서울특별시 서초구 잠원동 36-11,1.17E+11,서울특별시 서초구 강남대로93길,서울특별시 서초구 강남대로93길 7,127.0198594,37.51232988
서초구,The커피엔젤매드후라이마블라운지,서울특별시 서초구 잠원동 13-1,1.17E+11,서울특별시 서초구 강남대로101길,서울특별시 서초구 강남대로101길 17,127.0183772,37.51667866
서초구,ori.et,서울특별시 서초구 방배동 894-20,1.17E+11,서울특별시 서초구 서초대로32길,서울특별시 서초구 서초대로32길 8,126.9969357,37.4883136
서초구,카페,서울특별시 서초구 방배동 792-6,1.17E+11,서울특별시 서초구 방배로35길,서울특별시 서초구 방배로35길 45,126.9870479,37.49202267
서초구,파브리끄,서울특별시 서초구 서초동 1359-14,1.17E+11,서울특별시 서초구 서운로6길,서울특별시 서초구 서운로6길 25,127.0310051,37.48576863
서초구,스테이블커피로스터스,서울특별시 서초구 방배동 873-23,1.17E+11,서울특별시 서초구 방배로25길,서울특별시 서초구 방배로25길 25,126.991588,37.48825005
서초구,Mr.goat,서울특별시 서초구 신원동 216-18,1.17E+11,서울특별시 서초구 청룡마을길,서울특별시 서초구 청룡마을길 13,127.058388,37.44640639
서초구,청아해,서울특별시 서초구 잠원동 50-5,1.17E+11,서울특별시 서초구 잠원로14길,서울특별시 서초구 잠원로14길 41,127.014364,37.51648305
서초구,C.VIRUS,서울특별시 서초구 양재동 269-4,1.17E+11,서울특별시 서초구 마방로10길,서울특별시 서초구 마방로10길 34-11,127.0439454,37.47564703
서초구,Clatage,서울특별시 서초구 잠원동 50-5,1.17E+11,서울특별시 서초구 잠원로14길,서울특별시 서초구 잠원로14길 41,127.0141741,37.51543625
서초구,카페지니,서울특별시 서초구 잠원동 38-7,1.17E+11,서울특별시 서초구 강남대로91길,서울특별시 서초구 강남대로91길 15,127.0196947,37.51195007
서초구,주부리,서울특별시 서초구 방배동 3016,1.17E+11,서울특별시 서초구 서초대로1길,서울특별시 서초구 서초대로1길 19,126.9829985,37.48792413
서초구,크리미몰랑,서울특별시 서초구 양재동 314-9,1.17E+11,서울특별시 서초구 마방로2길,서울특별시 서초구 마방로2길 57,127.0394478,37.4710602
서초구,커피홀,서울특별시 서초구 방배동 425-1,1.17E+11,서울특별시 서초구 방배천로,서울특별시 서초구 방배천로 92,126.9833265,37.48458404
서초구,커피빈,서울특별시 서초구 서초동 1699-16,1.17E+11,서울특별시 서초구 서초중앙로,서울특별시 서초구 서초중앙로 156,127.0135186,37.49562563
서초구,9cafe,서울특별시 서초구 잠원동 30-2,1.17E+11,서울특별시 서초구 강남대로95길,서울특별시 서초구 강남대로95길 41,127.0179604,37.51308901
서초구,스타벅스,서울특별시 서초구 서초동 1439-14,1.17E+11,서울특별시 서초구 남부순환로339길,서울특별시 서초구 남부순환로339길 64,127.0215728,37.48591615
서초구,CAFEEEPHUS,서울특별시 서초구 양재동 68-7,1.17E+11,서울특별시 서초구 바우뫼로33길,서울특별시 서초구 바우뫼로33길 7-8,127.0371667,37.47790771
서초구,5월5일,서울특별시 서초구 서초동 1362-16,1.17E+11,서울특별시 서초구 강남대로37길,서울특별시 서초구 강남대로37길 12-3,127.0325299,37.48502423
서초구,플라워에이일공오,서울특별시 서초구 양재동 17-41,1.17E+11,서울특별시 서초구 바우뫼로39길,서울특별시 서초구 바우뫼로39길 55,127.0394317,37.48203497
서초구,폴바셋,서울특별시 서초구 방배동 924-20,1.17E+11,서울특별시 서초구 방배로,서울특별시 서초구 방배로 103,126.9961099,37.48326969
서초구,회화나무로스터스,서울특별시 서초구 우면동 687-2,1.17E+11,서울특별시 서초구 성촌1길,서울특별시 서초구 성촌1길 6,127.0223886,37.4658203
서초구,빽다방,서울특별시 서초구 양재동 316-9,1.17E+11,서울특별시 서초구 마방로2길,서울특별시 서초구 마방로2길 94,127.039796,37.46946816
서초구,제주향,서울특별시 서초구 신원동 192-104,1.17E+11,서울특별시 서초구 청계산로,서울특별시 서초구 청계산로 237,127.0580154,37.44457425
서초구,매머드익스프레스,서울특별시 서초구 방배동 421-1,1.17E+11,서울특별시 서초구 서초대로,서울특별시 서초구 서초대로 12,126.9836481,37.48504634
서초구,페이토커피,서울특별시 서초구 서초동 1361-10,1.17E+11,서울특별시 서초구 강남대로,서울특별시 서초구 강남대로 259,127.0326118,37.48656571
서초구,열다방,서울특별시 서초구 서초동 1425-1,1.17E+11,서울특별시 서초구 남부순환로,서울특별시 서초구 남부순환로 2457,127.0191153,37.48274208
서초구,벼리스타,서울특별시 서초구 서초동 1445-14,1.17E+11,서울특별시 서초구 서초중앙로2길,서울특별시 서초구 서초중앙로2길 21,127.018625,37.48391839
서초구,카페따라주,서울특별시 서초구 양재동 232,1.17E+11,서울특별시 서초구 강남대로,서울특별시 서초구 강남대로 27,127.0391217,37.46827328
서초구,Ph6.5flower,서울특별시 서초구 서초동 1628-27,1.17E+11,서울특별시 서초구 사임당로14길,서울특별시 서초구 사임당로14길 7,127.0176562,37.48883011
서초구,토다서초,서울특별시 서초구 서초동 1589-1,1.17E+11,서울특별시 서초구 반포대로14길,서울특별시 서초구 반포대로14길 26,127.0125004,37.48534509
서초구,언택트카페무,서울특별시 서초구 방배동 440-33,1.17E+11,서울특별시 서초구 동작대로,서울특별시 서초구 동작대로 54-1,126.9822384,37.481439
서초구,데일리커피,서울특별시 서초구 서초동 1554-1,1.17E+11,서울특별시 서초구 서초대로46길,서울특별시 서초구 서초대로46길 3,127.009978,37.49226211
서초구,카페안젤로성의회관점,서울특별시 서초구 반포동 505,1.17E+11,서울특별시 서초구 반포대로,서울특별시 서초구 반포대로 222,127.0058407,37.50238224
서초구,카페리티,서울특별시 서초구 양재동 259-3,1.17E+11,서울특별시 서초구 마방로6길,서울특별시 서초구 마방로6길 8-53,127.0415459,37.47407777
서초구,플레이스엘엘,서울특별시 서초구 서초동 1550-8,1.17E+11,서울특별시 서초구 반포대로28길,서울특별시 서초구 반포대로28길 24,127.009921,37.49058567
서초구,바나프레소,서울특별시 서초구 서초동 1303,1.17E+11,서울특별시 서초구 사평대로,서울특별시 서초구 사평대로 364,127.0231839,37.50372533
서초구,라벨라양재하이브랜드,서울특별시 서초구 양재동 215,1.17E+11,서울특별시 서초구 매헌로,서울특별시 서초구 매헌로 16,127.0369353,37.46246166
서초구,보플뢰르,서울특별시 서초구 양재동 153,1.17E+11,서울특별시 서초구 바우뫼로,서울특별시 서초구 바우뫼로 91,127.0317881,37.47503443
서초구,날이좋아서,서울특별시 서초구 원지동 383-1,1.17E+11,서울특별시 서초구 청계산로,서울특별시 서초구 청계산로 231,127.0577167,37.44495933
서초구,더벤티,서울특별시 서초구 양재동 113-4,1.17E+11,서울특별시 서초구 양재천로11길,서울특별시 서초구 양재천로11길 18,127.036226,37.47544916
서초구,비에이블스터디카페양재센터,서울특별시 서초구 양재동 376-2,1.17E+11,서울특별시 서초구 동산로12길,서울특별시 서초구 동산로12길 4,127.0450264,37.47154694
서초구,면역공방,서울특별시 서초구 방배동 3278,1.17E+11,서울특별시 서초구 명달로9길,서울특별시 서초구 명달로9길 57,127.0020198,37.48014804
서초구,쏭카페,서울특별시 서초구 양재동 328-6,1.17E+11,서울특별시 서초구 강남대로8길,서울특별시 서초구 강남대로8길 15-1,127.0417128,37.46809608
서초구,타니타니,서울특별시 서초구 서초동 1591-3,1.17E+11,서울특별시 서초구 반포대로14길,서울특별시 서초구 반포대로14길 27,127.0123245,37.48582118
서초구,빙달,서울특별시 서초구 서초동 1487-31,1.17E+11,서울특별시 서초구 명달로8길,서울특별시 서초구 명달로8길 19-8,127.006326,37.48197743
서초구,라미토스,서울특별시 서초구 방배동 984-3,1.17E+11,서울특별시 서초구 효령로34길,서울특별시 서초구 효령로34길 4,126.9990073,37.48136601
서초구,파스쿠찌,서울특별시 서초구 서초동 1623-8,1.17E+11,서울특별시 서초구 사임당로8길,서울특별시 서초구 사임당로8길 42,127.0158863,37.48668888
서초구,커피핑크,서울특별시 서초구 양재동 277-6,1.17E+11,서울특별시 서초구 언남길,서울특별시 서초구 언남길 87,127.0461604,37.475719
서초구,커피에반하다,서울특별시 서초구 반포동 128-7,1.17E+11,서울특별시 서초구 사평대로,서울특별시 서초구 사평대로 285,127.0154197,37.50414744
서초구,엠즈씨드,서울특별시 서초구 반포동 118-3,1.17E+11,서울특별시 서초구 사평대로,서울특별시 서초구 사평대로 205,127.0078261,37.50448036
서초구,편강도원,서울특별시 서초구 서초동 1353-1,1.17E+11,서울특별시 서초구 서운로1길,서울특별시 서초구 서운로1길 21,127.0283667,37.48431428
서초구,빅카모카페,서울특별시 서초구 반포동 734-6,1.17E+11,서울특별시 서초구 사평대로55길,서울특별시 서초구 사평대로55길 65-3,127.0215051,37.50670293
서초구,카페클라라,서울특별시 서초구 서초동 1348-13,1.17E+11,서울특별시 서초구 효령로74길,서울특별시 서초구 효령로74길 36,127.0264623,37.48642509
서초구,커피501,서울특별시 서초구 반포동 70-1,1.17E+11,서울특별시 서초구 사평대로28길,서울특별시 서초구 사평대로28길 31,127.000921,37.4989798
서초구,버터풀앤크리멀러스,서울특별시 서초구 서초동 1305-3,1.17E+11,서울특별시 서초구 강남대로,서울특별시 서초구 강남대로 437,127.0254994,37.50135666
서초구,비에이블스터디카페,서울특별시 서초구 서초동 1523-14,1.17E+11,서울특별시 서초구 반포대로21길,서울특별시 서초구 반포대로21길 49,127.0081766,37.48653431
서초구,타임스터디카페방배,서울특별시 서초구 방배동 1023-9,1.17E+11,서울특별시 서초구 방배로4길,서울특별시 서초구 방배로4길 5,127.0004068,37.47816109
서초구,먼셀커피,서울특별시 서초구 반포동 72-9,1.17E+11,서울특별시 서초구 서래로6길,서울특별시 서초구 서래로6길 15,126.9991603,37.49786561
서초구,행운을주는로또커피,서울특별시 서초구 서초동 1339-2,1.17E+11,서울특별시 서초구 효령로,서울특별시 서초구 효령로 423,127.0299304,37.48930096
서초구,카페원,서울특별시 서초구 잠원동 61-9,1.17E+11,서울특별시 서초구 잠원로4길,서울특별시 서초구 잠원로4길 33-2,127.0106456,37.5128027
서초구,늘봄북스양재,서울특별시 서초구 양재동 102-5,1.17E+11,서울특별시 서초구 양재천로,서울특별시 서초구 양재천로 33,127.0335581,37.4736703
서초구,커피인더스트리,서울특별시 서초구 방배동 452-9,1.17E+11,서울특별시 서초구 방배천로4길,서울특별시 서초구 방배천로4길 3,126.9830618,37.47824735
서초구,마더앤도터,서울특별시 서초구 신원동 493-7,1.17E+11,서울특별시 서초구 청계산로,서울특별시 서초구 청계산로 113,127.0510453,37.45419592
서초구,달콤,서울특별시 서초구 양재동 291-24,1.17E+11,서울특별시 서초구 동산로13길,서울특별시 서초구 동산로13길 12,127.045151,37.47241297
서초구,오늘애,서울특별시 서초구 서초동 1635-9,1.17E+11,서울특별시 서초구 서초대로64길,서울특별시 서초구 서초대로64길 47,127.0214269,37.49362798
서초구,씨오커피로스터스,서울특별시 서초구 방배동 875-1,1.17E+11,서울특별시 서초구 방배로,서울특별시 서초구 방배로 170,126.9931628,37.48886719
서초구,양재커피,서울특별시 서초구 양재동 7-43,1.17E+11,서울특별시 서초구 강남대로30길,서울특별시 서초구 강남대로30길 63,127.0405647,37.482738
서초구,우리동네서재,서울특별시 서초구 서초동 1648-2,1.17E+11,서울특별시 서초구 사임당로19길,서울특별시 서초구 사임당로19길 10,127.0201595,37.49109452
서초구,아쿠아렐,서울특별시 서초구 양재동 120,1.17E+11,서울특별시 서초구 양재천로13길,서울특별시 서초구 양재천로13길 17,127.0365087,37.47544246
서초구,JJY카페,서울특별시 서초구 방배동 769-5,1.17E+11,서울특별시 서초구 방배중앙로,서울특별시 서초구 방배중앙로 178,126.9862053,37.49496188
서초구,카페유,서울특별시 서초구 방배동 1648,1.17E+11,서울특별시 서초구 동광로12가길,서울특별시 서초구 동광로12가길 36,126.9828674,37.48758961
서초구,살롱드카이도,서울특별시 서초구 서초동 1657-2,1.17E+11,서울특별시 서초구 서초중앙로,서울특별시 서초구 서초중앙로 124,127.0141092,37.4928463
서초구,DUTCH&COMPANY,서울특별시 서초구 우면동 685,1.17E+11,서울특별시 서초구 성촌길,서울특별시 서초구 성촌길 67,127.0212952,37.46558598
서초구,Lowergarden,서울특별시 서초구 반포동 737-13,1.17E+11,서울특별시 서초구 사평대로57길,서울특별시 서초구 사평대로57길 28,127.0230805,37.50558965
서초구,스케일즈커피,서울특별시 서초구 방배동 877-13,1.17E+11,서울특별시 서초구 서초대로,서울특별시 서초구 서초대로 117,126.9950689,37.48838784
서초구,카페테리아,서울특별시 서초구 양재동 202,1.17E+11,서울특별시 서초구 바우뫼로12길,서울특별시 서초구 바우뫼로12길 70,127.033051,37.46827782
서초구,커피하우스,서울특별시 서초구 방배동 1009-1,1.17E+11,서울특별시 서초구 남부순환로,서울특별시 서초구 남부순환로 2307-6,127.0039314,37.47667708
서초구,TIME,서울특별시 서초구 서초동 1487-101,1.17E+11,서울특별시 서초구 효령로40길,서울특별시 서초구 효령로40길 53,127.0063888,37.4806444
서초구,CafeS,서울특별시 서초구 양재동 232,1.17E+11,서울특별시 서초구 강남대로,서울특별시 서초구 강남대로 27,127.0391217,37.46827328
서초구,약수터,서울특별시 서초구 반포동 551-44,1.17E+11,서울특별시 서초구 동광로49길,서울특별시 서초구 동광로49길 74,127.001182,37.49636895
서초구,내곡숲,서울특별시 서초구 내곡동 168-12,1.17E+11,서울특별시 서초구 홍씨마을길,서울특별시 서초구 홍씨마을길 5,127.0653154,37.45461601
서초구,WHATUWANNA,서울특별시 서초구 양재동 332-10,1.17E+11,서울특별시 서초구 동산로2길,서울특별시 서초구 동산로2길 19,127.0422663,37.46901064
서초구,남,서울특별시 서초구 서초동 1333,1.17E+11,서울특별시 서초구 사임당로,서울특별시 서초구 사임당로 137,127.0243487,37.49157071
서초구,타이거슈가강남고속터미널,서울특별시 서초구 반포동 19-4,1.17E+11,서울특별시 서초구 신반포로,서울특별시 서초구 신반포로 194,127.0068163,37.50642716
서초구,10000LAB커피,서울특별시 서초구 서초동 1694-17,1.17E+11,서울특별시 서초구 서초중앙로,서울특별시 서초구 서초중앙로 146,127.0136888,37.49471698
서초구,브라하,서울특별시 서초구 방배동 1021-10,1.17E+11,서울특별시 서초구 방배로6길,서울특별시 서초구 방배로6길 15,127.0001985,37.47936674
서초구,폴바셋,서울특별시 서초구 서초동 1317-23,1.17E+11,서울특별시 서초구 서초대로,서울특별시 서초구 서초대로 411,127.0259036,37.49809817
서초구,퀴즈노스서울,서울특별시 서초구 반포동 505,1.17E+11,서울특별시 서초구 반포대로,서울특별시 서초구 반포대로 222,127.0058407,37.50238224
서초구,사푼사푼,서울특별시 서초구 서초동 1329,1.17E+11,서울특별시 서초구 강남대로,서울특별시 서초구 강남대로 355,127.0288133,37.49435572
서초구,카페수,서울특별시 서초구 서초동 1560-2,1.17E+11,서울특별시 서초구 반포대로22길,서울특별시 서초구 반포대로22길 38,127.0109047,37.4897379
서초구,카페드앙떼띠,서울특별시 서초구 반포동 74-1,1.17E+11,서울특별시 서초구 서래로6길,서울특별시 서초구 서래로6길 24,126.9996954,37.49759983
서초구,카페테라스,서울특별시 서초구 양재동 340-3,1.17E+11,서울특별시 서초구 강남대로8길,서울특별시 서초구 강남대로8길 40-13,127.0433739,37.46903764
서초구,커피마마예술의전당우리집,서울특별시 서초구 서초동 1463-10,1.17E+11,서울특별시 서초구 반포대로,서울특별시 서초구 반포대로 9,127.0122924,37.48138771
서초구,빌리엔젤,서울특별시 서초구 방배동 908-13,1.17E+11,서울특별시 서초구 효령로,서울특별시 서초구 효령로 127,126.9980069,37.48177202
서초구,카페티티티비씨카드점,서울특별시 서초구 서초동 1600-9,1.17E+11,서울특별시 서초구 서초중앙로5길,서울특별시 서초구 서초중앙로5길 10-8,127.0150831,37.48585322
서초구,레벤,서울특별시 서초구 양재동 138-4,1.17E+11,서울특별시 서초구 바우뫼로,서울특별시 서초구 바우뫼로 101,127.0321845,37.47498362
서초구,이디야커피,서울특별시 서초구 반포동 737-16,1.17E+11,서울특별시 서초구 강남대로79길,서울특별시 서초구 강남대로79길 10,127.0231974,37.50529327
서초구,유어마이커피,서울특별시 서초구 양재동 19-8,1.17E+11,서울특별시 서초구 논현로31길,서울특별시 서초구 논현로31길 50-6,127.0408269,37.48080285
서초구,커피온리,서울특별시 서초구 서초동 1330-10,1.17E+11,서울특별시 서초구 사임당로,서울특별시 서초구 사임당로 175,127.0286616,37.49297586
서초구,카페드보통(CAFEDEB),서울특별시 서초구 양재동 219-7,1.17E+11,서울특별시 서초구 매헌로3길,서울특별시 서초구 매헌로3길 26,127.0342207,37.46259268
서초구,Sarah&Chois,서울특별시 서초구 서초동 1540-3,1.17E+11,서울특별시 서초구 서초대로40길,서울특별시 서초구 서초대로40길 49,127.0082175,37.48942704
서초구,카페델씨엘로(CAFEDEL),서울특별시 서초구 반포동 1053,1.17E+11,서울특별시 서초구 신반포로,서울특별시 서초구 신반포로 22,126.9871619,37.50116032
서초구,카페끌라시코,서울특별시 서초구 서초동 1337-14,1.17E+11,서울특별시 서초구 사임당로,서울특별시 서초구 사임당로 178,127.0290797,37.49212329
서초구,베리언스커피,서울특별시 서초구 서초동 1434-12,1.17E+11,서울특별시 서초구 남부순환로337가길,서울특별시 서초구 남부순환로337가길 33,127.0234869,37.48393164
서초구,늘봄pet카페,서울특별시 서초구 양재동 108-5,1.17E+11,서울특별시 서초구 바우뫼로,서울특별시 서초구 바우뫼로 156,127.0374134,37.47718887
서초구,써니사이드카페,서울특별시 서초구 반포동 20-45,1.17E+11,서울특별시 서초구 잠원로,서울특별시 서초구 잠원로 24,127.0098611,37.50711049
서초구,커피볶는집,서울특별시 서초구 양재동 319-4,1.17E+11,서울특별시 서초구 강남대로16길,서울특별시 서초구 강남대로16길 16,127.0400278,37.4707946
서초구,그라찌에,서울특별시 서초구 내곡동 375,1.17E+11,서울특별시 서초구 헌릉로,서울특별시 서초구 헌릉로 260,127.0688729,37.45576141
서초구,카페자마이카,서울특별시 서초구 방배동 796-27,1.17E+11,서울특별시 서초구 방배로,서울특별시 서초구 방배로 226,126.9904337,37.49335818
서초구,향,서울특별시 서초구 방배동 480-3,1.17E+11,서울특별시 서초구 효령로2길,서울특별시 서초구 효령로2길 25,126.9877022,37.47621477
서초구,Quinto,서울특별시 서초구 서초동 1680-1,1.17E+11,서울특별시 서초구 서초대로,서울특별시 서초구 서초대로 357,127.0204665,37.496161
서초구,보나비아티제,서울특별시 서초구 방배동 444-3,1.17E+11,서울특별시 서초구 방배천로,서울특별시 서초구 방배천로 11,126.9822214,37.47769047
서초구,투웰브바스캣,서울특별시 서초구 방배동 883-20,1.17E+11,서울특별시 서초구 서초대로34길,서울특별시 서초구 서초대로34길 23,126.9984699,37.48858792
서초구,가을,서울특별시 서초구 잠원동 22-10,1.17E+11,서울특별시 서초구 강남대로97길,서울특별시 서초구 강남대로97길 26,127.0182907,37.51464157
서초구,카페희다,서울특별시 서초구 반포동 701-52,1.17E+11,서울특별시 서초구 주흥15길,서울특별시 서초구 주흥15길 16-4,127.0181052,37.50894537
서초구,투썸플레이스,서울특별시 서초구 서초동 1459-12,1.17E+11,서울특별시 서초구 반포대로,서울특별시 서초구 반포대로 34,127.0119792,37.48370982
서초구,ARTMAJOR,서울특별시 서초구 방배동 897-2,1.17E+11,서울특별시 서초구 서초대로,서울특별시 서초구 서초대로 114,126.9947722,37.48774556
서초구,탐앤탐스,서울특별시 서초구 서초동 1329,1.17E+11,서울특별시 서초구 강남대로,서울특별시 서초구 강남대로 355,127.0288133,37.49435572
서초구,카페트리니티,서울특별시 서초구 원지동 379,1.17E+11,서울특별시 서초구 원터2길,서울특별시 서초구 원터2길 4,127.0563922,37.44424593
서초구,SPELL,서울특별시 서초구 반포동 735-18,1.17E+11,서울특별시 서초구 사평대로57길,서울특별시 서초구 사평대로57길 57,127.0222509,37.50675416
서초구,꿈꾸는다락방,서울특별시 서초구 방배동 473-1,1.17E+11,서울특별시 서초구 청두곶길,서울특별시 서초구 청두곶길 14,126.9854743,37.4779347
서초구,애플짐주스바,서울특별시 서초구 잠원동 76-5,1.17E+11,서울특별시 서초구 반포대로,서울특별시 서초구 반포대로 304,127.0009841,37.50612568
서초구,스타벅스,서울특별시 서초구 서초동 1329-7,1.17E+11,서울특별시 서초구 강남대로,서울특별시 서초구 강남대로 343,127.0292201,37.49351207
서초구,로지카스터디카페,서울특별시 서초구 서초동 1697-37,1.17E+11,서울특별시 서초구 서초대로55길,서울특별시 서초구 서초대로55길 19,127.0150356,37.49635913
서초구,커피집,서울특별시 서초구 양재동 200,1.17E+11,서울특별시 서초구 바우뫼로12길,서울특별시 서초구 바우뫼로12길 40,127.0320017,37.46987311
서초구,카페코나퀸즈,서울특별시 서초구 양재동 12-7,1.17E+11,서울특별시 서초구 남부순환로350길,서울특별시 서초구 남부순환로350길 12,127.0354495,37.48396684
서초구,라운지,서울특별시 서초구 양재동 246-6,1.17E+11,서울특별시 서초구 언남3길,서울특별시 서초구 언남3길 6,127.04118,37.47263311
서초구,할리스,서울특별시 서초구 양재동 13-11,1.17E+11,서울특별시 서초구 강남대로,서울특별시 서초구 강남대로 210,127.03614,37.48302636
서초구,바움라이브러리카페,서울특별시 서초구 우면동 2-8,1.17E+11,서울특별시 서초구 바우뫼로,서울특별시 서초구 바우뫼로 20,127.0252738,37.46998
서초구,아티제잠원파스텔점,서울특별시 서초구 잠원동 66-2,1.17E+11,서울특별시 서초구 신반포로33길,서울특별시 서초구 신반포로33길 23,127.0097722,37.50956061
서초구,마이빈,서울특별시 서초구 양재동 232,1.17E+11,서울특별시 서초구 강남대로,서울특별시 서초구 강남대로 27,127.0391217,37.46827328
서초구,커피나무이수로스팅하우스,서울특별시 서초구 방배동 864-21,1.17E+11,서울특별시 서초구 서초대로,서울특별시 서초구 서초대로 31,126.9857938,37.48608297
서초구,SALMOS231,서울특별시 서초구 양재동 242-9,1.17E+11,서울특별시 서초구 마방로2길,서울특별시 서초구 마방로2길 33,127.0394111,37.4721592
서초구,코나카페,서울특별시 서초구 방배동 924-9,1.17E+11,서울특별시 서초구 효령로31길,서울특별시 서초구 효령로31길 46,126.9957598,37.48323968
서초구,비스트로33,서울특별시 서초구 신원동 448-22,1.17E+11,서울특별시 서초구 본마을길,서울특별시 서초구 본마을길 33,127.0537789,37.45432597
서초구,P268,서울특별시 서초구 서초동 1624-1,1.17E+11,서울특별시 서초구 서초중앙로,서울특별시 서초구 서초중앙로 72,127.0149177,37.48811349
서초구,아티제,서울특별시 서초구 잠원동 65-32,1.17E+11,서울특별시 서초구 잠원로,서울특별시 서초구 잠원로 88,127.0082098,37.51224164
서초구,카페테라스오늘,서울특별시 서초구 반포동 63-7,1.17E+11,서울특별시 서초구 반포대로,서울특별시 서초구 반포대로 235,127.0032397,37.50065733
서초구,오페라빈,서울특별시 서초구 서초동 1515-1,1.17E+11,서울특별시 서초구 명달로22길,서울특별시 서초구 명달로22길 4,127.004454,37.48671925
서초구,bluement,서울특별시 서초구 방배동 1002-15,1.17E+11,서울특별시 서초구 명달로,서울특별시 서초구 명달로 51,127.0046421,37.4819092
서초구,쿠마커피,서울특별시 서초구 서초동 1304-5,1.17E+11,서울특별시 서초구 강남대로,서울특별시 서초구 강남대로 445,127.0252311,37.50198518
서초구,스페셜티커피,서울특별시 서초구 양재동 256-5,1.17E+11,서울특별시 서초구 언남길,서울특별시 서초구 언남길 51,127.0430432,37.47369344
서초구,카페브릿,서울특별시 서초구 양재동 251,1.17E+11,서울특별시 서초구 마방로4길,서울특별시 서초구 마방로4길 17,127.0412238,37.47363364
서초구,커피빈,서울특별시 서초구 서초동 1316-5,1.17E+11,서울특별시 서초구 서초대로,서울특별시 서초구 서초대로 397,127.0244987,37.49742881
서초구,커피콩,서울특별시 서초구 방배동 462-7,1.17E+11,서울특별시 서초구 청두곶길,서울특별시 서초구 청두곶길 38-2,126.9854352,37.47998877
서초구,빅브라더문라이트,서울특별시 서초구 방배동 857-1,1.17E+11,서울특별시 서초구 방배중앙로,서울특별시 서초구 방배중앙로 102,126.9885212,37.48843107
서초구,브라운하우스,서울특별시 서초구 신원동 450-1,1.17E+11,서울특별시 서초구 본마을2길,서울특별시 서초구 본마을2길 9-6,127.054234,37.45498739
서초구,버드,서울특별시 서초구 잠원동 71-10,1.17E+11,서울특별시 서초구 신반포로23길,서울특별시 서초구 신반포로23길 66,127.0052411,37.51091917
서초구,보고타,서울특별시 서초구 서초동 1487-18,1.17E+11,서울특별시 서초구 효령로40길,서울특별시 서초구 효령로40길 11,127.0060033,37.48243426
서초구,쥬스식스,서울특별시 서초구 반포동 128-4,1.17E+11,서울특별시 서초구 신반포로,서울특별시 서초구 신반포로 186-2,127.0050321,37.50621391
서초구,셀렉토커피양재극동점,서울특별시 서초구 양재동 8-22,1.17E+11,서울특별시 서초구 바우뫼로41길,서울특별시 서초구 바우뫼로41길 87,127.0395723,37.48429777
서초구,슈가플럼,서울특별시 서초구 양재동 90-7,1.17E+11,서울특별시 서초구 양재천로,서울특별시 서초구 양재천로 129,127.0417376,37.47854858
서초구,티블랙,서울특별시 서초구 방배동 480-1,1.17E+11,서울특별시 서초구 효령로4길,서울특별시 서초구 효령로4길 24,126.987856,37.47654948
서초구,"겨울,그리고봄",서울특별시 서초구 잠원동 38-17,1.17E+11,서울특별시 서초구 신반포로47길,서울특별시 서초구 신반포로47길 12,127.0196011,37.51131856
서초구,이디야커피,서울특별시 서초구 서초동 1489-4,1.17E+11,서울특별시 서초구 효령로40길,서울특별시 서초구 효령로40길 4,127.0057618,37.48273859
서초구,온기경,서울특별시 서초구 양재동 290-7,1.17E+11,서울특별시 서초구 동산로,서울특별시 서초구 동산로 77,127.0470456,37.47278869
서초구,행복한베이커리&카페,서울특별시 서초구 서초동 391,1.17E+11,서울특별시 서초구 남부순환로340길,서울특별시 서초구 남부순환로340길 29,127.0234208,37.48119188
서초구,카페다임,서울특별시 서초구 서초동 1628-62,1.17E+11,서울특별시 서초구 서리풀3길,서울특별시 서초구 서리풀3길 24,127.0181213,37.48785182
서초구,에세스커피,서울특별시 서초구 신원동 210-2,1.17E+11,서울특별시 서초구 청룡마을4길,서울특별시 서초구 청룡마을4길 11-3,127.0575677,37.44693148
서초구,쥬스식스,서울특별시 서초구 서초동 1718-4,1.17E+11,서울특별시 서초구 법원로1길,서울특별시 서초구 법원로1길 11,127.0092694,37.49283284
서초구,DreamHouse,서울특별시 서초구 서초동 1502-2,1.17E+11,서울특별시 서초구 반포대로27길,서울특별시 서초구 반포대로27길 21,127.0071621,37.48970651
서초구,CafeHUB,서울특별시 서초구 반포동 48-1,1.17E+11,서울특별시 서초구 고무래로10길,서울특별시 서초구 고무래로10길 26,127.0094575,37.5008538
서초구,다정다감,서울특별시 서초구 반포동 732-29,1.17E+11,서울특별시 서초구 강남대로83길,서울특별시 서초구 강남대로83길 64-2,127.0206362,37.50482154
서초구,늘봄카페,서울특별시 서초구 양재동 7-32,1.17E+11,서울특별시 서초구 바우뫼로41길,서울특별시 서초구 바우뫼로41길 72-9,127.0404716,37.48382752
서초구,코즈모갤러리서초,서울특별시 서초구 서초동 1498-5,1.17E+11,서울특별시 서초구 서초대로38길,서울특별시 서초구 서초대로38길 12,127.0051933,37.49065408
서초구,더치앤빈,서울특별시 서초구 서초동 1303-10,1.17E+11,서울특별시 서초구 사평대로56길,서울특별시 서초구 사평대로56길 7,127.0235525,37.50321477
서초구,flowercafetiffany,서울특별시 서초구 양재동 89-9,1.17E+11,서울특별시 서초구 양재천로,서울특별시 서초구 양재천로 135-10,127.0418187,37.4792791
서초구,HotelDouce오뗄두스,서울특별시 서초구 반포동 70-1,1.17E+11,서울특별시 서초구 사평대로28길,서울특별시 서초구 사평대로28길 31,127.000921,37.4989798
서초구,오늘도커피,서울특별시 서초구 방배동 812-23,1.17E+11,서울특별시 서초구 방배로31길,서울특별시 서초구 방배로31길 8,126.990795,37.49088337
서초구,만랩커피,서울특별시 서초구 방배동 755-14,1.17E+11,서울특별시 서초구 방배중앙로,서울특별시 서초구 방배중앙로 204,126.9856769,37.49723701
서초구,늘봄카페,서울특별시 서초구 염곡동 180-2,1.17E+11,서울특별시 서초구 염곡말길,서울특별시 서초구 염곡말길 9,127.050565,37.46178803
서초구,할리스커피,서울특별시 서초구 서초동 1573-14,1.17E+11,서울특별시 서초구 반포대로30길,서울특별시 서초구 반포대로30길 81,127.0129668,37.49286379
서초구,스타벅스,서울특별시 서초구 서초동 1365-23,1.17E+11,서울특별시 서초구 남부순환로,서울특별시 서초구 남부순환로 2557,127.03005,37.48442722
서초구,카페그린그린,서울특별시 서초구 양재동 122-8,1.17E+11,서울특별시 서초구 양재천로,서울특별시 서초구 양재천로 73,127.0375733,37.47529795
서초구,에아미스커피,서울특별시 서초구 반포동 735-16,1.17E+11,서울특별시 서초구 사평대로57길,서울특별시 서초구 사평대로57길 63,127.022146,37.50699658
서초구,멜슨하우스,서울특별시 서초구 서초동 1604-4,1.17E+11,서울특별시 서초구 효령로61길,서울특별시 서초구 효령로61길 14-5,127.0193812,37.48661883
서초구,더치드림,서울특별시 서초구 우면동 738,1.17E+11,서울특별시 서초구 태봉로2길,서울특별시 서초구 태봉로2길 24,127.0253633,37.46133957
서초구,디초콜릿커피,서울특별시 서초구 방배동 796-27,1.17E+11,서울특별시 서초구 동광로,서울특별시 서초구 동광로 77,126.9908888,37.49315482
서초구,한나식빵,서울특별시 서초구 우면동 72-8,1.17E+11,서울특별시 서초구 바우뫼로7길,서울특별시 서초구 바우뫼로7길 64-11,127.0245861,37.47244322
서초구,에이미스커피,서울특별시 서초구 서초동 1364-50,1.17E+11,서울특별시 서초구 강남대로37길,서울특별시 서초구 강남대로37길 40,127.0312649,37.48491475
서초구,hundred11,서울특별시 서초구 방배동 3001-2,1.17E+11,서울특별시 서초구 서초대로,서울특별시 서초구 서초대로 3-4,126.9830474,37.48598728
서초구,신일룡호두파이,서울특별시 서초구 원지동 419-5,1.17E+11,서울특별시 서초구 원터6길,서울특별시 서초구 원터6길 4,127.0557485,37.44330368
서초구,세웅물산_커피,서울특별시 서초구 서초동 1506-25,1.17E+11,서울특별시 서초구 반포대로23길,서울특별시 서초구 반포대로23길 43,127.0063281,37.48864526
서초구,브알라누아르,서울특별시 서초구 우면동 725,1.17E+11,서울특별시 서초구 태봉로,서울특별시 서초구 태봉로 62,127.0249777,37.46404858
서초구,늘봄카페,서울특별시 서초구 반포동 20-48,1.17E+11,서울특별시 서초구 사평대로,서울특별시 서초구 사평대로 273,127.0133602,37.50508537
서초구,커피콩,서울특별시 서초구 방배동 905-4,1.17E+11,서울특별시 서초구 방배로,서울특별시 서초구 방배로 116,126.9958888,37.48458335
서초구,베르디,서울특별시 서초구 양재동 324-4,1.17E+11,서울특별시 서초구 동산로,서울특별시 서초구 동산로 13,127.0410033,37.46964916
서초구,GK플레이스,서울특별시 서초구 서초동 1589-5,1.17E+11,서울특별시 서초구 반포대로14길,서울특별시 서초구 반포대로14길 30,127.012771,37.48540141
서초구,로이,서울특별시 서초구 반포동 106-9,1.17E+11,서울특별시 서초구 서래로7길,서울특별시 서초구 서래로7길 18,126.9973268,37.49881419
서초구,잠원커피,서울특별시 서초구 잠원동 61-7,1.17E+11,서울특별시 서초구 잠원로4길,서울특별시 서초구 잠원로4길 41-3,127.0109491,37.51294941
서초구,양재커피집,서울특별시 서초구 양재동 209-5,1.17E+11,서울특별시 서초구 매헌로,서울특별시 서초구 매헌로 42,127.0343858,37.4646935
서초구,뉴트리미,서울특별시 서초구 반포동 2-8,1.17E+11,서울특별시 서초구 신반포로15길,서울특별시 서초구 신반포로15길 29,126.9946818,37.5054595
서초구,키커피,서울특별시 서초구 반포동 19-3,1.17E+11,서울특별시 서초구 신반포로,서울특별시 서초구 신반포로 176,127.0023932,37.50393001
서초구,컴포,서울특별시 서초구 반포동 50-5,1.17E+11,서울특별시 서초구 서초중앙로33길,서울특별시 서초구 서초중앙로33길 7,127.0111966,37.50104858
서초구,바론카페,서울특별시 서초구 양재동 13-9,1.17E+11,서울특별시 서초구 남부순환로350길,서울특별시 서초구 남부순환로350길 36,127.0362044,37.48328819
서초구,헤이와,서울특별시 서초구 반포동 1048,1.17E+11,서울특별시 서초구 신반포로,서울특별시 서초구 신반포로 38,126.9888424,37.5015081
서초구,세븐몽키스커피,서울특별시 서초구 방배동 864-1,1.17E+11,서울특별시 서초구 도구로,서울특별시 서초구 도구로 123-9,126.9854709,37.48738673
서초구,공차교대점,서울특별시 서초구 서초동 1573-10,1.17E+11,서울특별시 서초구 서초중앙로,서울특별시 서초구 서초중앙로 125,127.013406,37.49300262
서초구,늘봄카페서초여성가족플라자,서울특별시 서초구 서초동 1302-6,1.17E+11,서울특별시 서초구 서운로26길,서울특별시 서초구 서운로26길 3,127.0221906,37.50270793
서초구,커피스테이션,서울특별시 서초구 방배동 758-2,1.17E+11,서울특별시 서초구 방배로,서울특별시 서초구 방배로 269,126.9877319,37.49664192
서초구,방배동커피집,서울특별시 서초구 방배동 900-37,1.17E+11,서울특별시 서초구 방배로20길,서울특별시 서초구 방배로20길 33,126.9967365,37.48630255
서초구,리파인드,서울특별시 서초구 양재동 121-10,1.17E+11,서울특별시 서초구 양재천로13길,서울특별시 서초구 양재천로13길 8,127.037065,37.47526678
서초구,녹색광선,서울특별시 서초구 서초동 1598-8,1.17E+11,서울특별시 서초구 서초중앙로,서울특별시 서초구 서초중앙로 63-6,127.014337,37.487559
서초구,BGM,서울특별시 서초구 방배동 467-3,1.17E+11,서울특별시 서초구 청두곶3길,서울특별시 서초구 청두곶3길 22,126.9840032,37.47886816
서초구,비커피,서울특별시 서초구 양재동 217,1.17E+11,서울특별시 서초구 양재대로11길,서울특별시 서초구 양재대로11길 36,127.0353609,37.46182708
서초구,아쿠아가든카페,서울특별시 서초구 양재동 372,1.17E+11,서울특별시 서초구 동산로6길,서울특별시 서초구 동산로6길 3,127.0434415,37.47083129
서초구,매머드익스프레스제일kcc점,서울특별시 서초구 반포동 745-6,1.17E+11,서울특별시 서초구 주흥길,서울특별시 서초구 주흥길 3,127.0207857,37.50375954
서초구,스타벅스예술의전당점,서울특별시 서초구 서초동 1451-95,1.17E+11,서울특별시 서초구 남부순환로323길,서울특별시 서초구 남부순환로323길 1,127.0134831,37.48112734
서초구,CAFECODE,서울특별시 서초구 방배동 465-30,1.17E+11,서울특별시 서초구 방배천로6길,서울특별시 서초구 방배천로6길 37,126.9847085,37.47937882
서초구,NJPark,서울특별시 서초구 방배동 855-20,1.17E+11,서울특별시 서초구 방배로27길,서울특별시 서초구 방배로27길 43,126.9898704,37.48900127
서초구,매머드익스프레스,서울특별시 서초구 서초동 1588-7,1.17E+11,서울특별시 서초구 효령로53길,서울특별시 서초구 효령로53길 18,127.0139571,37.48549241
서초구,DOUBLEDEEPCOFFEE,서울특별시 서초구 방배동 912-1,1.17E+11,서울특별시 서초구 방배로11길,서울특별시 서초구 방배로11길 21,126.9953774,37.48139828
서초구,부티커리미엘르,서울특별시 서초구 방배동 797-11,1.17E+11,서울특별시 서초구 동광로,서울특별시 서초구 동광로 93,126.9925438,37.49370057
서초구,쥬씨삼호가든사거리점,서울특별시 서초구 반포동 52-2,1.17E+11,서울특별시 서초구 고무래로10길,서울특별시 서초구 고무래로10길 5,127.0108887,37.50210023
서초구,KAFE-KAFE,서울특별시 서초구 방배동 815-3,1.17E+11,서울특별시 서초구 방배로33길,서울특별시 서초구 방배로33길 15,126.9899012,37.49174975
서초구,홍연커피,서울특별시 서초구 방배동 1024-2,1.17E+11,서울특별시 서초구 방배로4길,서울특별시 서초구 방배로4길 6,127.0005222,37.47798185
서초구,까페구마리온,서울특별시 서초구 잠원동 35-21,1.17E+11,서울특별시 서초구 신반포로47길,서울특별시 서초구 신반포로47길 43,127.0183995,37.51238083
서초구,카페코네,서울특별시 서초구 잠원동 72-3,1.17E+11,서울특별시 서초구 잠원로3길,서울특별시 서초구 잠원로3길 40,127.0036371,37.50820249
서초구,카페,서울특별시 서초구 잠원동 28-7,1.17E+11,서울특별시 서초구 강남대로93길,서울특별시 서초구 강남대로93길 6,127.0199332,37.51273596
서초구,더카페,서울특별시 서초구 서초동 1692-6,1.17E+11,서울특별시 서초구 서초중앙로24길,서울특별시 서초구 서초중앙로24길 16,127.0152389,37.49465783
서초구,카페라리,서울특별시 서초구 서초동 1428-15,1.17E+11,서울특별시 서초구 남부순환로337길,서울특별시 서초구 남부순환로337길 37,127.0204074,37.48423954
서초구,테이크커피,서울특별시 서초구 우면동 686,1.17E+11,서울특별시 서초구 성촌1길,서울특별시 서초구 성촌1길 26,127.0213541,37.46539725
서초구,카페안젤로,서울특별시 서초구 반포동 505,1.17E+11,서울특별시 서초구 반포대로,서울특별시 서초구 반포대로 222,127.0058407,37.50238224
서초구,로이즈커피,서울특별시 서초구 양재동 276-11,1.17E+11,서울특별시 서초구 논현로17길,서울특별시 서초구 논현로17길 16,127.0448203,37.47619474
서초구,커피빈,서울특별시 서초구 방배동 851-4,1.17E+11,서울특별시 서초구 방배로,서울특별시 서초구 방배로 178,126.992826,37.4895311
서초구,카페안젤로서초평화빌딩점,서울특별시 서초구 서초동 1451-34,1.17E+11,서울특별시 서초구 반포대로,서울특별시 서초구 반포대로 22,127.0126922,37.4827967
서초구,스타벅스,서울특별시 서초구 방배동 851-1,1.17E+11,서울특별시 서초구 방배로,서울특별시 서초구 방배로 184,126.9924576,37.49001452
서초구,101커피컨테이너,서울특별시 서초구 원지동 419-22,1.17E+11,서울특별시 서초구 원터6길,서울특별시 서초구 원터6길 6,127.0556223,37.44345586
서초구,놀숲,서울특별시 서초구 서초동 1303-36,1.17E+11,서울특별시 서초구 서초대로77길,서울특별시 서초구 서초대로77길 58,127.024364,37.50256371
서초구,GABO,서울특별시 서초구 잠원동 8-30,1.17E+11,서울특별시 서초구 강남대로105길,서울특별시 서초구 강남대로105길 6,127.0185005,37.51762579
서초구,BEABLE스터디카페방배센터,서울특별시 서초구 방배동 761-4,1.17E+11,서울특별시 서초구 방배중앙로,서울특별시 서초구 방배중앙로 191,126.9854558,37.4960277
서초구,TARECoffeeRoasters,서울특별시 서초구 양재동 305-11,1.17E+11,서울특별시 서초구 언남12길,서울특별시 서초구 언남12길 1,127.0444036,37.47429014
서초구,ATTIORE커피나무,서울특별시 서초구 양재동 233-2,1.17E+11,서울특별시 서초구 매헌로,서울특별시 서초구 매헌로 116,127.0383086,37.46996967
서초구,미스터브리즈커피,서울특별시 서초구 서초동 1427-4,1.17E+11,서울특별시 서초구 서초중앙로2길,서울특별시 서초구 서초중앙로2길 34,127.0192597,37.48380652
서초구,코네카페,서울특별시 서초구 잠원동 76-6,1.17E+11,서울특별시 서초구 반포대로,서울특별시 서초구 반포대로 300,127.0010887,37.50591933
서초구,제너럴커피코디네이터,서울특별시 서초구 잠원동 41-7,1.17E+11,서울특별시 서초구 신반포로45길,서울특별시 서초구 신반포로45길 9-13,127.018241,37.51066751
서초구,아하브,서울특별시 서초구 서초동 1684-1,1.17E+11,서울특별시 서초구 고무래로,서울특별시 서초구 고무래로 90-7,127.0174318,37.49991122
서초구,아이엠바리스타,서울특별시 서초구 방배동 792-4,1.17E+11,서울특별시 서초구 동광로,서울특별시 서초구 동광로 41,126.9872442,37.49171799
서초구,투썸플레이스,서울특별시 서초구 서초동 1361-5,1.17E+11,서울특별시 서초구 강남대로,서울특별시 서초구 강남대로 263,127.0323811,37.48691524
서초구,스타벅스이수역사거리점,서울특별시 서초구 방배동 3001-2,1.17E+11,서울특별시 서초구 서초대로,서울특별시 서초구 서초대로 3-4,126.9830474,37.48598728
서초구,cafe74℉,서울특별시 서초구 서초동 1340,1.17E+11,서울특별시 서초구 효령로,서울특별시 서초구 효령로 424,127.0302194,37.48881676
서초구,제너러스커피,서울특별시 서초구 양재동 15-26,1.17E+11,서울특별시 서초구 강남대로30길,서울특별시 서초구 강남대로30길 20,127.0383369,37.4818819
서초구,ROBERTHARRIS,서울특별시 서초구 우면동 176-10,1.17E+11,서울특별시 서초구 성촌6길,서울특별시 서초구 성촌6길 41,127.0228546,37.46736497
서초구,커피나무방배역점,서울특별시 서초구 방배동 913-19,1.17E+11,서울특별시 서초구 효령로29길,서울특별시 서초구 효령로29길 23,126.9951241,37.48258551
서초구,발롱카페,서울특별시 서초구 서초동 1356-5,1.17E+11,서울특별시 서초구 서운로,서울특별시 서초구 서운로 36,127.0290167,37.48738321
서초구,커피빈,서울특별시 서초구 반포동 736-17,1.17E+11,서울특별시 서초구 강남대로,서울특별시 서초구 강남대로 503,127.0228039,37.50684884
서초구,모즈시다모,서울특별시 서초구 서초동 1627-2,1.17E+11,서울특별시 서초구 사임당로,서울특별시 서초구 사임당로 66,127.0171678,37.48898823
서초구,미도반반찬까페,서울특별시 서초구 반포동 1053,1.17E+11,서울특별시 서초구 신반포로,서울특별시 서초구 신반포로 22,126.9871619,37.50116032
서초구,imtcafe,서울특별시 서초구 양재동 220-3,1.17E+11,서울특별시 서초구 매헌로1길,서울특별시 서초구 매헌로1길 38,127.0339459,37.46198673
서초구,스타벅스,서울특별시 서초구 반포동 736-2,1.17E+11,서울특별시 서초구 강남대로85길,서울특별시 서초구 강남대로85길 5,127.0225824,37.50736061
서초구,한스텝씨즈캔디,서울특별시 서초구 반포동 118-3,1.17E+11,서울특별시 서초구 사평대로,서울특별시 서초구 사평대로 205,127.0078261,37.50448036
서초구,함께하는문화,서울특별시 서초구 염곡동 180-2,1.17E+11,서울특별시 서초구 염곡말길,서울특별시 서초구 염곡말길 9,127.050565,37.46178803
서초구,몽쥬르COFFEE,서울특별시 서초구 방배동 924-11,1.17E+11,서울특별시 서초구 방배로,서울특별시 서초구 방배로 107,126.9960287,37.48342218
서초구,현명커피,서울특별시 서초구 방배동 978-28,1.17E+11,서울특별시 서초구 방배중앙로,서울특별시 서초구 방배중앙로 17,126.9925827,37.48154568
서초구,카페마마스,서울특별시 서초구 반포동 19-3,1.17E+11,서울특별시 서초구 신반포로,서울특별시 서초구 신반포로 176,127.0023932,37.50393001
서초구,스타벅스이수역점,서울특별시 서초구 방배동 3000-1,1.17E+11,서울특별시 서초구 동작대로,서울특별시 서초구 동작대로 112,126.9826899,37.4864978
서초구,싱글오커피,서울특별시 서초구 양재동 81-3,1.17E+11,서울특별시 서초구 바우뫼로,서울특별시 서초구 바우뫼로 182-1,127.0400427,37.47846274
서초구,THECAFESHEENBANG,서울특별시 서초구 서초동 1366-18,1.17E+11,서울특별시 서초구 남부순환로,서울특별시 서초구 남부순환로 2575,127.0322188,37.48459819
서초구,이삭토스트,서울특별시 서초구 방배동 924-12,1.17E+11,서울특별시 서초구 방배로,서울특별시 서초구 방배로 109,126.9956399,37.48375226
서초구,공차남부터미널점,서울특별시 서초구 서초동 1446-1,1.17E+11,서울특별시 서초구 효령로,서울특별시 서초구 효령로 292,127.0150909,37.48353757
서초구,더페이지,서울특별시 서초구 방배동 796-27,1.17E+11,서울특별시 서초구 동광로,서울특별시 서초구 동광로 77,126.9908888,37.49315482
서초구,산밑에,서울특별시 서초구 신원동 385-2,1.17E+11,서울특별시 서초구 본마을3길,서울특별시 서초구 본마을3길 21,127.0556631,37.45369228
서초구,쿠오레에스프레소,서울특별시 서초구 서초동 1357-66,1.17E+11,서울특별시 서초구 강남대로,서울특별시 서초구 강남대로 275,127.0319727,37.48789404
서초구,비알코리아베스킨라빈스양,서울특별시 서초구 서초동 1366-9,1.17E+11,서울특별시 서초구 남부순환로,서울특별시 서초구 남부순환로 2585,127.0345228,37.48392323
서초구,카페라리,서울특별시 서초구 방배동 18-27,1.17E+11,서울특별시 서초구 방배로42길,서울특별시 서초구 방배로42길 3,126.9892047,37.49560931
서초구,CafeClara,서울특별시 서초구 서초동 1610-4,1.17E+11,서울특별시 서초구 효령로67길,서울특별시 서초구 효령로67길 71-9,127.022335,37.48989612
서초구,카페토다,서울특별시 서초구 우면동 176-5,1.17E+11,서울특별시 서초구 성촌6길,서울특별시 서초구 성촌6길 39,127.0226153,37.46751617
서초구,탐앤탐스,서울특별시 서초구 원지동 10-16,1.17E+11,서울특별시 서초구 양재대로12길,서울특별시 서초구 양재대로12길 73-71,127.0427135,37.45965224
서초구,마체베트정글키즈파미,서울특별시 서초구 반포동 118-3,1.17E+11,서울특별시 서초구 사평대로,서울특별시 서초구 사평대로 205,127.0078261,37.50448036
서초구,엔제리너스강남역점,서울특별시 서초구 서초동 1306-4,1.17E+11,서울특별시 서초구 서초대로77길,서울특별시 서초구 서초대로77길 24,127.0259806,37.50000905
서초구,카페마마스강남역점,서울특별시 서초구 서초동 1321-6,1.17E+11,서울특별시 서초구 서운로,서울특별시 서초구 서운로 138,127.0252291,37.49604722
서초구,CAFEGUMAREON까페구마리온,서울특별시 서초구 잠원동 35-21,1.17E+11,서울특별시 서초구 신반포로47길,서울특별시 서초구 신반포로47길 43,127.0183995,37.51238083
서초구,몬무스커피,서울특별시 서초구 반포동 551-32,1.17E+11,서울특별시 서초구 동광로43길,서울특별시 서초구 동광로43길 51-13,127.0006727,37.49724768
서초구,비트윈카페,서울특별시 서초구 방배동 906-1,1.17E+11,서울특별시 서초구 방배로16길,서울특별시 서초구 방배로16길 10,126.9964427,37.48459706
서초구,sec커피,서울특별시 서초구 우면동 687-2,1.17E+11,서울특별시 서초구 성촌1길,서울특별시 서초구 성촌1길 6,127.0223886,37.4658203
서초구,커피빈,서울특별시 서초구 서초동 1572-7,1.17E+11,서울특별시 서초구 서초대로,서울특별시 서초구 서초대로 280,127.0123549,37.49295779
서초구,카페폰타나,서울특별시 서초구 반포동 63-1,1.17E+11,서울특별시 서초구 사평대로,서울특별시 서초구 사평대로 160,127.0024603,37.50143467
서초구,씨엔엔카페세빛둥둥섬점,서울특별시 서초구 반포동 650,1.17E+11,서울특별시 서초구 올림픽대로,서울특별시 서초구 올림픽대로 2085-14,126.9959457,37.51242636
서초구,caferainbow,서울특별시 서초구 양재동 348-5,1.17E+11,서울특별시 서초구 강남대로8길,서울특별시 서초구 강남대로8길 16-17,127.0426923,37.46751834
서초구,네츄럴웨이브카페,서울특별시 서초구 우면동 721-1,1.17E+11,서울특별시 서초구 태봉로,서울특별시 서초구 태봉로 70,127.0255706,37.46453103
서초구,Swich카페,서울특별시 서초구 양재동 108-5,1.17E+11,서울특별시 서초구 바우뫼로,서울특별시 서초구 바우뫼로 156,127.0374134,37.47718887
서초구,커피빈,서울특별시 서초구 서초동 1304,1.17E+11,서울특별시 서초구 강남대로,서울특별시 서초구 강남대로 449-3,127.0248644,37.50235159
서초구,커피타임,서울특별시 서초구 반포동 929,1.17E+11,서울특별시 서초구 신반포로,서울특별시 서초구 신반포로 41,126.9890174,37.50195112
서초구,레트로카페,서울특별시 서초구 서초동 1443-4,1.17E+11,서울특별시 서초구 효령로,서울특별시 서초구 효령로 316-1,127.0189561,37.48540788
서초구,인카페,서울특별시 서초구 양재동 272-10,1.17E+11,서울특별시 서초구 언남길,서울특별시 서초구 언남길 71,127.0446797,37.47480598
서초구,메리어트카페,서울특별시 서초구 반포동 19-3,1.17E+11,서울특별시 서초구 신반포로,서울특별시 서초구 신반포로 176,127.0023932,37.50393001
서초구,2080더커피숍,서울특별시 서초구 방배동 455-11,1.17E+11,서울특별시 서초구 방배천로,서울특별시 서초구 방배천로 48,126.9827678,37.48075876
서초구,이디야커피,서울특별시 서초구 반포동 978,1.17E+11,서울특별시 서초구 신반포로,서울특별시 서초구 신반포로 50,126.990128,37.50178041
서초구,boutcoffee,서울특별시 서초구 우면동 7-4,1.17E+11,서울특별시 서초구 바우뫼로6길,서울특별시 서초구 바우뫼로6길 22,127.0261621,37.46947372
서초구,CNNCafe세빛둥둥섬점,서울특별시 서초구 반포동 650,1.17E+11,서울특별시 서초구 올림픽대로,서울특별시 서초구 올림픽대로 2085-14,126.9959457,37.51242636
서초구,카페앳,서울특별시 서초구 양재동 393-5,1.17E+11,서울특별시 서초구 논현로,서울특별시 서초구 논현로 15,127.0495024,37.47251112
서초구,커피빈,서울특별시 서초구 방배동 761-6,1.17E+11,서울특별시 서초구 방배중앙로,서울특별시 서초구 방배중앙로 187,126.9855167,37.49570384
서초구,에델리아카페,서울특별시 서초구 서초동 1424-2,1.17E+11,서울특별시 서초구 남부순환로,서울특별시 서초구 남부순환로 2477,127.0212127,37.48318297
서초구,셀렉토,서울특별시 서초구 방배동 824-1,1.17E+11,서울특별시 서초구 동광로,서울특별시 서초구 동광로 22,126.9851772,37.49070909
서초구,벨라빈스커피,서울특별시 서초구 서초동 1678-4,1.17E+11,서울특별시 서초구 서초대로,서울특별시 서초구 서초대로 356,127.0202277,37.49540213
서초구,Parlorm,서울특별시 서초구 반포동 551-33,1.17E+11,서울특별시 서초구 사평대로28길,서울특별시 서초구 사평대로28길 77,127.000641,37.49707621
서초구,와플반트,서울특별시 서초구 반포동 19-4,1.17E+11,서울특별시 서초구 신반포로,서울특별시 서초구 신반포로 194,127.0068163,37.50642716
서초구,꽃카페JE,서울특별시 서초구 잠원동 49-8,1.17E+11,서울특별시 서초구 잠원로,서울특별시 서초구 잠원로 213-10,127.0155156,37.52095286
서초구,카페157,서울특별시 서초구 서초동 1701-1,1.17E+11,서울특별시 서초구 서초중앙로,서울특별시 서초구 서초중앙로 157,127.0111089,37.49826359
서초구,아씨뜰,서울특별시 서초구 내곡동 1-2299,1.17E+11,서울특별시 서초구 신흥말길,서울특별시 서초구 신흥말길 84,127.0804545,37.45331109
서초구,투썸플레이스,서울특별시 서초구 서초동 1688-5,1.17E+11,서울특별시 서초구 서초대로,서울특별시 서초구 서초대로 353,127.0199046,37.49589503
서초구,에제르커피하우스,서울특별시 서초구 방배동 1009-1,1.17E+11,서울특별시 서초구 남부순환로,서울특별시 서초구 남부순환로 2307-6,127.0039314,37.47667708
서초구,카페무세띠,서울특별시 서초구 서초동 1303-16,1.17E+11,서울특별시 서초구 서초대로77길,서울특별시 서초구 서초대로77길 62,127.0238869,37.50272196
서초구,커피는사랑,서울특별시 서초구 잠원동 15-10,1.17E+11,서울특별시 서초구 나루터로,서울특별시 서초구 나루터로 59,127.0164498,37.51528402
서초구,할리스커피,서울특별시 서초구 서초동 1498-5,1.17E+11,서울특별시 서초구 서초대로38길,서울특별시 서초구 서초대로38길 12,127.0053652,37.49048432
서초구,그랜파키친,서울특별시 서초구 반포동 72-2,1.17E+11,서울특별시 서초구 서래로8길,서울특별시 서초구 서래로8길 18,126.9993667,37.4984981
서초구,디디드립드림커피,서울특별시 서초구 서초동 1308-25,1.17E+11,서울특별시 서초구 서초대로73길,서울특별시 서초구 서초대로73길 40,127.0245438,37.50091627
서초구,굿럭커피,서울특별시 서초구 양재동 124,1.17E+11,서울특별시 서초구 강남대로23길,서울특별시 서초구 강남대로23길 25,127.0375252,37.47640586
서초구,스타벅스,서울특별시 서초구 방배동 444-7,1.17E+11,서울특별시 서초구 방배천로,서울특별시 서초구 방배천로 5-4,126.9821471,37.47733842
서초구,클레어플레이스,서울특별시 서초구 양재동 80,1.17E+11,서울특별시 서초구 강남대로,서울특별시 서초구 강남대로 148,127.0391683,37.47787895
서초구,공차양재본점,서울특별시 서초구 양재동 108-6,1.17E+11,서울특별시 서초구 바우뫼로,서울특별시 서초구 바우뫼로 158,127.0375591,37.47728918
서초구,아임커피,서울특별시 서초구 방배동 1024-1,1.17E+11,서울특별시 서초구 방배로,서울특별시 서초구 방배로 32,127.0003547,37.47782726
서초구,앨리스토리커피볶는집,서울특별시 서초구 양재동 319-4,1.17E+11,서울특별시 서초구 강남대로16길,서울특별시 서초구 강남대로16길 16,127.0400278,37.4707946
서초구,파운드로컬,서울특별시 서초구 잠원동 15-8,1.17E+11,서울특별시 서초구 나루터로,서울특별시 서초구 나루터로 65,127.0168649,37.51554878
서초구,공차,서울특별시 서초구 서초동 1498-5,1.17E+11,서울특별시 서초구 서초대로38길,서울특별시 서초구 서초대로38길 12,127.0051933,37.49065408
서초구,이디야커피,서울특별시 서초구 서초동 1365-22,1.17E+11,서울특별시 서초구 남부순환로,서울특별시 서초구 남부순환로 2561,127.0305599,37.4843413
서초구,하루샐러드,서울특별시 서초구 서초동 1718-4,1.17E+11,서울특별시 서초구 법원로1길,서울특별시 서초구 법원로1길 11,127.0092694,37.49283284
서초구,띠아모,서울특별시 서초구 방배동 911-25,1.17E+11,서울특별시 서초구 방배로13길,서울특별시 서초구 방배로13길 15,126.9956744,37.48286051
서초구,파인트리커피,서울특별시 서초구 방배동 1015,1.17E+11,서울특별시 서초구 방배로,서울특별시 서초구 방배로 16,127.0012315,37.47651012
서초구,베네딕트영,서울특별시 서초구 서초동 1309-8,1.17E+11,서울특별시 서초구 강남대로69길,서울특별시 서초구 강남대로69길 8,127.0246336,37.50183608
서초구,커피빈,서울특별시 서초구 서초동 1306-2,1.17E+11,서울특별시 서초구 강남대로,서울특별시 서초구 강남대로 423,127.0257958,37.50030487
서초구,투비샵,서울특별시 서초구 서초동 1712-2,1.17E+11,서울특별시 서초구 법원로2길,서울특별시 서초구 법원로2길 7-4,127.0116175,37.49399685
서초구,플랫,서울특별시 서초구 서초동 1659-2,1.17E+11,서울특별시 서초구 서초중앙로22길,서울특별시 서초구 서초중앙로22길 22-7,127.0153186,37.49289243
서초구,제프리스아카데미,서울특별시 서초구 방배동 794-12,1.17E+11,서울특별시 서초구 방배로35길,서울특별시 서초구 방배로35길 14,126.988496,37.49280998
서초구,리더커피,서울특별시 서초구 반포동 734-10,1.17E+11,서울특별시 서초구 사평대로55길,서울특별시 서초구 사평대로55길 51-2,127.0216908,37.50634405
서초구,MEGACOFFEE,서울특별시 서초구 서초동 1716-3,1.17E+11,서울특별시 서초구 서초대로,서울특별시 서초구 서초대로 271,127.0114,37.49333726
서초구,Wannacoffee,서울특별시 서초구 서초동 1712-2,1.17E+11,서울특별시 서초구 법원로2길,서울특별시 서초구 법원로2길 7-4,127.0116175,37.49399685
서초구,코스믹라떼,서울특별시 서초구 방배동 766-4,1.17E+11,서울특별시 서초구 동광로3길,서울특별시 서초구 동광로3길 91,126.9842824,37.49499042
서초구,커피클릭,서울특별시 서초구 양재동 5-2,1.17E+11,서울특별시 서초구 논현로31길,서울특별시 서초구 논현로31길 47,127.0410779,37.48062467
서초구,서울이스케이프룸,서울특별시 서초구 서초동 1317-9,1.17E+11,서울특별시 서초구 서초대로77길,서울특별시 서초구 서초대로77길 11,127.0260992,37.4987125
서초구,일상커피컴패니,서울특별시 서초구 방배동 784-11,1.17E+11,서울특별시 서초구 동광로1길,서울특별시 서초구 동광로1길 6,126.983791,37.49203074
서초구,카페화이브,서울특별시 서초구 반포동 19-3,1.17E+11,서울특별시 서초구 신반포로,서울특별시 서초구 신반포로 176,127.0023932,37.50393001
서초구,마빙,서울특별시 서초구 서초동 1748-5,1.17E+11,서울특별시 서초구 서초대로,서울특별시 서초구 서초대로 233,127.0075639,37.49181835
서초구,COFFEEAVENUEPUB,서울특별시 서초구 서초동 1569-6,1.17E+11,서울특별시 서초구 반포대로26길,서울특별시 서초구 반포대로26길 58,127.0123226,37.49111937
서초구,투썸플레이스,서울특별시 서초구 방배동 755-14,1.17E+11,서울특별시 서초구 방배중앙로,서울특별시 서초구 방배중앙로 204,126.9856769,37.49723701
서초구,JAVATREKKERCOFFEE,서울특별시 서초구 서초동 1552-2,1.17E+11,서울특별시 서초구 서초대로42길,서울특별시 서초구 서초대로42길 17,127.0089178,37.49119898
서초구,Cafeespani,서울특별시 서초구 서초동 1712-2,1.17E+11,서울특별시 서초구 법원로2길,서울특별시 서초구 법원로2길 7-4,127.0116175,37.49399685
서초구,열린상상카페,서울특별시 서초구 반포동 4-15,1.17E+11,서울특별시 서초구 신반포로15길,서울특별시 서초구 신반포로15길 16,126.9944562,37.50457455
서초구,원더빌더커피,서울특별시 서초구 방배동 797-24,1.17E+11,서울특별시 서초구 동광로,서울특별시 서초구 동광로 101,126.9935593,37.49387141
서초구,투톤,서울특별시 서초구 반포동 63-1,1.17E+11,서울특별시 서초구 사평대로,서울특별시 서초구 사평대로 160,127.0024603,37.50143467
서초구,나,서울특별시 서초구 반포동 649,1.17E+11,서울특별시 서초구 올림픽대로,서울특별시 서초구 올림픽대로 683,126.9959457,37.51242636
서초구,Cafebliss,서울특별시 서초구 서초동 1554-13,1.17E+11,서울특별시 서초구 반포대로30길,서울특별시 서초구 반포대로30길 33,127.0103077,37.49212971
서초구,빌리엔젤,서울특별시 서초구 방배동 444-16,1.17E+11,서울특별시 서초구 동작대로,서울특별시 서초구 동작대로 18,126.9820803,37.47809473
서초구,매머드커피,서울특별시 서초구 서초동 1666-1,1.17E+11,서울특별시 서초구 서초대로54길,서울특별시 서초구 서초대로54길 33,127.016406,37.49275732
서초구,이디야커피,서울특별시 서초구 우면동 2-8,1.17E+11,서울특별시 서초구 바우뫼로,서울특별시 서초구 바우뫼로 20,127.0252738,37.46998
서초구,커피빈,서울특별시 서초구 서초동 1317-31,1.17E+11,서울특별시 서초구 서초대로73길,서울특별시 서초구 서초대로73길 12,127.025717,37.49853815
서초구,엔트런스,서울특별시 서초구 서초동 1643-32,1.17E+11,서울특별시 서초구 사임당로19길,서울특별시 서초구 사임당로19길 72-3,127.0190338,37.49243676
서초구,카멜롯,서울특별시 서초구 서초동 1344-26,1.17E+11,서울특별시 서초구 효령로72길,서울특별시 서초구 효령로72길 37,127.0273269,37.48689175
서초구,DAILYDEE,서울특별시 서초구 서초동 1698-6,1.17E+11,서울특별시 서초구 서초대로53길,서울특별시 서초구 서초대로53길 25,127.014188,37.49631602
서초구,낯선카페,서울특별시 서초구 양재동 113-4,1.17E+11,서울특별시 서초구 양재천로11길,서울특별시 서초구 양재천로11길 18,127.036226,37.47544916
서초구,세컨클락,서울특별시 서초구 신원동 263-6,1.17E+11,서울특별시 서초구 청룡마을길,서울특별시 서초구 청룡마을길 41,127.0585183,37.44863305
서초구,커피라운지55,서울특별시 서초구 서초동 1463-10,1.17E+11,서울특별시 서초구 반포대로,서울특별시 서초구 반포대로 9,127.0122924,37.48138771
서초구,더브리제,서울특별시 서초구 방배동 927-35,1.17E+11,서울특별시 서초구 방배로19길,서울특별시 서초구 방배로19길 25,126.9936692,37.48483478
서초구,커피핑크,서울특별시 서초구 양재동 301-5,1.17E+11,서울특별시 서초구 동산로19길,서울특별시 서초구 동산로19길 41,127.0458273,37.47435571
서초구,비스위트,서울특별시 서초구 방배동 768-12,1.17E+11,서울특별시 서초구 방배중앙로,서울특별시 서초구 방배중앙로 175,126.9858023,37.49465206
서초구,로코민트,서울특별시 서초구 방배동 467-2,1.17E+11,서울특별시 서초구 방배천로2안길,서울특별시 서초구 방배천로2안길 48,126.9840119,37.47905746
서초구,부티커리미엘르,서울특별시 서초구 방배동 851-16,1.17E+11,서울특별시 서초구 서초대로25길,서울특별시 서초구 서초대로25길 51,126.9929679,37.48991075
서초구,카페밀리그램,서울특별시 서초구 방배동 980-56,1.17E+11,서울특별시 서초구 효령로,서울특별시 서초구 효령로 47,126.9894284,37.4790048
서초구,카페코드,서울특별시 서초구 방배동 465-30,1.17E+11,서울특별시 서초구 방배천로6길,서울특별시 서초구 방배천로6길 37,126.9847085,37.47937882
서초구,공차,서울특별시 서초구 반포동 19-11,1.17E+11,서울특별시 서초구 신반포로,서울특별시 서초구 신반포로 188,127.0048767,37.50343736
서초구,Aristacoffee,서울특별시 서초구 서초동 1498-5,1.17E+11,서울특별시 서초구 서초대로38길,서울특별시 서초구 서초대로38길 12,127.0053652,37.49048432
서초구,굴림,서울특별시 서초구 반포동 703-19,1.17E+11,서울특별시 서초구 신반포로42길,서울특별시 서초구 신반포로42길 11,127.0186809,37.50989626
서초구,"카페,널리",서울특별시 서초구 양재동 284,1.17E+11,서울특별시 서초구 논현로13길,서울특별시 서초구 논현로13길 20,127.0462908,37.47435945
서초구,유어마이커피브루어스,서울특별시 서초구 양재동 69-5,1.17E+11,서울특별시 서초구 바우뫼로33길,서울특별시 서초구 바우뫼로33길 7-14,127.0368193,37.4776706
서초구,36.5카페,서울특별시 서초구 방배동 780-21,1.17E+11,서울특별시 서초구 방배중앙로25길,서울특별시 서초구 방배중앙로25길 19,126.9850104,37.49384333
서초구,허유산,서울특별시 서초구 서초동 1309-9,1.17E+11,서울특별시 서초구 서초대로77길,서울특별시 서초구 서초대로77길 55,127.0244504,37.50200577
서초구,서울만남나이트카페,서울특별시 서초구 원지동 10-16,1.17E+11,서울특별시 서초구 양재대로12길,서울특별시 서초구 양재대로12길 73-71,127.0427137,37.45963422
서초구,에스베네핏,서울특별시 서초구 양재동 217,1.17E+11,서울특별시 서초구 양재대로11길,서울특별시 서초구 양재대로11길 36,127.0353609,37.46182708
서초구,행복떡방&카페,서울특별시 서초구 우면동 737,1.17E+11,서울특별시 서초구 태봉로2길,서울특별시 서초구 태봉로2길 30,127.0256372,37.4611436
서초구,포호커피,서울특별시 서초구 서초동 1685,1.17E+11,서울특별시 서초구 서초중앙로,서울특별시 서초구 서초중앙로 200,127.0158038,37.49987063
서초구,아로마리즈허브티하우스,서울특별시 서초구 반포동 758,1.17E+11,서울특별시 서초구 신반포로,서울특별시 서초구 신반포로 45,126.9890517,37.50527629
서초구,마이베네핏,서울특별시 서초구 잠원동 103,1.17E+11,서울특별시 서초구 신반포로,서울특별시 서초구 신반포로 241,127.0114766,37.50811518
서초구,파이브에비뉴,서울특별시 서초구 양재동 88-11,1.17E+11,서울특별시 서초구 논현로27길,서울특별시 서초구 논현로27길 39,127.0418238,37.47976571
서초구,한남동함바그또카레,서울특별시 서초구 서초동 1330-6,1.17E+11,서울특별시 서초구 서초대로74길,서울특별시 서초구 서초대로74길 51,127.0283892,37.49305471
서초구,투썸플레이스,서울특별시 서초구 서초동 1309-8,1.17E+11,서울특별시 서초구 강남대로69길,서울특별시 서초구 강남대로69길 8,127.0246336,37.50183608
서초구,Grit918,서울특별시 서초구 서초동 1715-5,1.17E+11,서울특별시 서초구 법원로2길,서울특별시 서초구 법원로2길 24,127.0132334,37.49409145
서초구,카페디로마,서울특별시 서초구 서초동 1476-11,1.17E+11,서울특별시 서초구 반포대로7길,서울특별시 서초구 반포대로7길 31,127.0103171,37.48199291
서초구,디톡시,서울특별시 서초구 서초동 1715-9,1.17E+11,서울특별시 서초구 서초대로,서울특별시 서초구 서초대로 287,127.0130005,37.4937471
서초구,메가엠지씨커피,서울특별시 서초구 서초동 1716-3,1.17E+11,서울특별시 서초구 서초대로,서울특별시 서초구 서초대로 271,127.0114,37.49333726
서초구,어스,서울특별시 서초구 서초동 1714-5,1.17E+11,서울특별시 서초구 서초중앙로,서울특별시 서초구 서초중앙로 151,127.0128464,37.49514245
서초구,프론트바이슈퍼픽션,서울특별시 서초구 양재동 121-8,1.17E+11,서울특별시 서초구 양재천로,서울특별시 서초구 양재천로 71,127.0372367,37.47509698
서초구,에스뜨레야,서울특별시 서초구 양재동 114-5,1.17E+11,서울특별시 서초구 강남대로23길,서울특별시 서초구 강남대로23길 66,127.0359705,37.47509566
서초구,할리스커피방배점세리,서울특별시 서초구 방배동 1007-4,1.17E+11,서울특별시 서초구 남부순환로,서울특별시 서초구 남부순환로 2335,127.0065958,37.47782583
서초구,오다카페,서울특별시 서초구 양재동 209-5,1.17E+11,서울특별시 서초구 매헌로,서울특별시 서초구 매헌로 42,127.0343858,37.4646935
서초구,빌리엔젤,서울특별시 서초구 서초동 1302-40,1.17E+11,서울특별시 서초구 사평대로56길,서울특별시 서초구 사평대로56길 12,127.023025,37.50290405
서초구,밀희,서울특별시 서초구 방배동 857-2,1.17E+11,서울특별시 서초구 방배로27길,서울특별시 서초구 방배로27길 69,126.9886442,37.48853124
서초구,카페드유중(CAFEDE),서울특별시 서초구 방배동 851-4,1.17E+11,서울특별시 서초구 방배로,서울특별시 서초구 방배로 178,126.992826,37.4895311
서초구,FORLOVE,서울특별시 서초구 서초동 1303-38,1.17E+11,서울특별시 서초구 강남대로,서울특별시 서초구 강남대로 453,127.024882,37.50273919
서초구,Mammothcoffee,서울특별시 서초구 서초동 1555-1,1.17E+11,서울특별시 서초구 서초대로46길,서울특별시 서초구 서초대로46길 15,127.0101204,37.49175871
서초구,스타벅스,서울특별시 서초구 서초동 1303-22,1.17E+11,서울특별시 서초구 강남대로,서울특별시 서초구 강남대로 465,127.0240884,37.50375083
서초구,GRANGERIE,서울특별시 서초구 서초동 1720-7,1.17E+11,서울특별시 서초구 법원로3길,서울특별시 서초구 법원로3길 26,127.0076943,37.49307192
서초구,TWOSOMEPLACE,서울특별시 서초구 서초동 1553-5,1.17E+11,서울특별시 서초구 서초대로,서울특별시 서초구 서초대로 254,127.0096081,37.49201572
서초구,Itscoffee,서울특별시 서초구 서초동 1552-15,1.17E+11,서울특별시 서초구 반포대로30길,서울특별시 서초구 반포대로30길 12-3,127.0094107,37.49155453
서초구,Boyacoffee,서울특별시 서초구 서초동 1542-1,1.17E+11,서울특별시 서초구 서초대로,서울특별시 서초구 서초대로 240,127.0082244,37.49147249
서초구,커피익스플로러,서울특별시 서초구 서초동 1599-2,1.17E+11,서울특별시 서초구 반포대로14길,서울특별시 서초구 반포대로14길 71,127.0145276,37.48682173
서초구,"오늘,커피한잔",서울특별시 서초구 서초동 1459-2,1.17E+11,서울특별시 서초구 반포대로,서울특별시 서초구 반포대로 38,127.011909,37.48388944
서초구,메가커피고투몰점,서울특별시 서초구 잠원동 68-17,1.17E+11,서울특별시 서초구 신반포로,서울특별시 서초구 신반포로 200,127.0050321,37.50621391
서초구,4560디자인하우스,서울특별시 서초구 양재동 215,1.17E+11,서울특별시 서초구 매헌로,서울특별시 서초구 매헌로 16,127.0369353,37.46246166
서초구,팔공티&팔라쪼파미에스테이션점,서울특별시 서초구 반포동 118-3,1.17E+11,서울특별시 서초구 사평대로,서울특별시 서초구 사평대로 205,127.0078261,37.50448036
서초구,아이센스PC방강남역점,서울특별시 서초구 서초동 1330-11,1.17E+11,서울특별시 서초구 서초대로78길,서울특별시 서초구 서초대로78길 56,127.0290008,37.49297864
서초구,푸디스트코트라cafe,서울특별시 서초구 염곡동 300-9,1.17E+11,서울특별시 서초구 헌릉로,서울특별시 서초구 헌릉로 13,127.0447352,37.46511101
서초구,오씨오씨커피,서울특별시 서초구 잠원동 57-20,1.17E+11,서울특별시 서초구 잠원로8길,서울특별시 서초구 잠원로8길 25,127.0114843,37.51439558
서초구,컴포즈커피,서울특별시 서초구 서초동 1666-2,1.17E+11,서울특별시 서초구 서초대로54길,서울특별시 서초구 서초대로54길 37,127.0164875,37.49257778
서초구,오!윤더치앤빈,서울특별시 서초구 서초동 1623-7,1.17E+11,서울특별시 서초구 사임당로8길,서울특별시 서초구 사임당로8길 40,127.0158401,37.48676058
서초구,크레마도르,서울특별시 서초구 서초동 1321-6,1.17E+11,서울특별시 서초구 서운로,서울특별시 서초구 서운로 138,127.0252291,37.49604722
서초구,카페알로하,서울특별시 서초구 양재동 17-10,1.17E+11,서울특별시 서초구 강남대로30길,서울특별시 서초구 강남대로30길 32-26,127.0393324,37.48096191
서초구,파파앤번,서울특별시 서초구 반포동 51-2,1.17E+11,서울특별시 서초구 서초중앙로,서울특별시 서초구 서초중앙로 219,127.011679,37.50134095
서초구,모범시민카페,서울특별시 서초구 서초동 1341-9,1.17E+11,서울특별시 서초구 강남대로47길,서울특별시 서초구 강남대로47길 30,127.0299965,37.48856264
서초구,커피빈,서울특별시 서초구 서초동 1328-3,1.17E+11,서울특별시 서초구 강남대로,서울특별시 서초구 강남대로 369,127.0281972,37.49564817
서초구,CafeAlice,서울특별시 서초구 양재동 154-2,1.17E+11,서울특별시 서초구 바우뫼로,서울특별시 서초구 바우뫼로 91,127.0317881,37.47503443
서초구,커피니,서울특별시 서초구 양재동 276,1.17E+11,서울특별시 서초구 마방로10길,서울특별시 서초구 마방로10길 33,127.0444252,37.4761465
서초구,로고스카페,서울특별시 서초구 방배동 865-1,1.17E+11,서울특별시 서초구 방배천로,서울특별시 서초구 방배천로 126,126.9850922,37.48695998
서초구,더가든커피,서울특별시 서초구 서초동 1538-1,1.17E+11,서울특별시 서초구 서초대로40길,서울특별시 서초구 서초대로40길 77,127.0086861,37.48819652
서초구,더비,서울특별시 서초구 잠원동 25-29,1.17E+11,서울특별시 서초구 강남대로95길,서울특별시 서초구 강남대로95길 48-22,127.0172681,37.51326346
서초구,LG전자,서울특별시 서초구 우면동 16,1.17E+11,서울특별시 서초구 바우뫼로,서울특별시 서초구 바우뫼로 38,127.026504,37.47100834
서초구,방배동커피볶는집一梨,서울특별시 서초구 방배동 935-27,1.17E+11,서울특별시 서초구 서초대로24길,서울특별시 서초구 서초대로24길 25,126.9937513,37.4863042
서초구,커피829,서울특별시 서초구 서초동 1574-6,1.17E+11,서울특별시 서초구 반포대로28길,서울특별시 서초구 반포대로28길 91,127.0131906,37.49218987
서초구,스타벅스,서울특별시 서초구 방배동 812-2,1.17E+11,서울특별시 서초구 방배로,서울특별시 서초구 방배로 211,126.9905093,37.49194417
서초구,빌리엔젤,서울특별시 서초구 서초동 1306,1.17E+11,서울특별시 서초구 강남대로65길,서울특별시 서초구 강남대로65길 1,127.0258838,37.50049482
서초구,카페아삽,서울특별시 서초구 서초동 1617-38,1.17E+11,서울특별시 서초구 서초중앙로8길,서울특별시 서초구 서초중앙로8길 111,127.0216463,37.48721428
서초구,카페수,서울특별시 서초구 방배동 864-1,1.17E+11,서울특별시 서초구 도구로,서울특별시 서초구 도구로 123-9,126.9854709,37.48738673
서초구,엘리스1871,서울특별시 서초구 반포동 19-3,1.17E+11,서울특별시 서초구 신반포로,서울특별시 서초구 신반포로 176,127.0023932,37.50393001
서초구,쥬씨양재점,서울특별시 서초구 양재동 11-86,1.17E+11,서울특별시 서초구 남부순환로356길,서울특별시 서초구 남부순환로356길 24,127.0378253,37.48386006
서초구,스타벅스,서울특별시 서초구 잠원동 21-7,1.17E+11,서울특별시 서초구 강남대로,서울특별시 서초구 강남대로 595,127.019521,37.51485002
서초구,타르타르,서울특별시 서초구 서초동 1317,1.17E+11,서울특별시 서초구 강남대로61길,서울특별시 서초구 강남대로61길 13,127.0255429,37.49887912
서초구,디바야누스,서울특별시 서초구 서초동 1670-6,1.17E+11,서울특별시 서초구 서초대로54길,서울특별시 서초구 서초대로54길 9-8,127.0161562,37.49370134
서초구,cafedyna,서울특별시 서초구 양재동 275-5,1.17E+11,서울특별시 서초구 마방로10길,서울특별시 서초구 마방로10길 5,127.0432717,37.47705624
서초구,까페더트리,서울특별시 서초구 양재동 110-1,1.17E+11,서울특별시 서초구 강남대로25길,서울특별시 서초구 강남대로25길 27,127.0370151,37.47650983
서초구,하와유카페104,서울특별시 서초구 염곡동 104,1.17E+11,서울특별시 서초구 염곡안길,서울특별시 서초구 염곡안길 15,127.0510786,37.46229675
서초구,뮤커피,서울특별시 서초구 방배동 789-17,1.17E+11,서울특별시 서초구 동광로11길,서울특별시 서초구 동광로11길 25,126.9858221,37.49235455
서초구,스타벅스,서울특별시 서초구 서초동 1318-8,1.17E+11,서울특별시 서초구 강남대로,서울특별시 서초구 강남대로 399,127.0268289,37.49825898
서초구,이비엠,서울특별시 서초구 서초동 1572-8,1.17E+11,서울특별시 서초구 서초대로50길,서울특별시 서초구 서초대로50길 8,127.012493,37.49277874
서초구,빙달,서울특별시 서초구 방배동 914-15,1.17E+11,서울특별시 서초구 방배로13길,서울특별시 서초구 방배로13길 41-3,126.9943701,37.48231779
서초구,스타벅스,서울특별시 서초구 반포동 92-1,1.17E+11,서울특별시 서초구 서래로,서울특별시 서초구 서래로 48,126.9985423,37.49925701
서초구,커피코트서초애비뉴점,서울특별시 서초구 서초동 1498-5,1.17E+11,서울특별시 서초구 서초대로38길,서울특별시 서초구 서초대로38길 12,127.0051933,37.49065408
서초구,카페큐,서울특별시 서초구 양재동 232,1.17E+11,서울특별시 서초구 강남대로,서울특별시 서초구 강남대로 27,127.0391217,37.46827328
서초구,커피베리,서울특별시 서초구 서초동 1706-9,1.17E+11,서울특별시 서초구 법원로3길,서울특별시 서초구 법원로3길 6-1,127.0095968,37.49372763
서초구,CLUB1d1m,서울특별시 서초구 서초동 1621-16,1.17E+11,서울특별시 서초구 서초중앙로6길,서울특별시 서초구 서초중앙로6길 29,127.0170968,37.4866449
서초구,종로교회커피,서울특별시 서초구 방배동 980-23,1.17E+11,서울특별시 서초구 효령로,서울특별시 서초구 효령로 35,126.9882252,37.47851694
서초구,BroomCoffee,서울특별시 서초구 서초동 1341-7,1.17E+11,서울특별시 서초구 남부순환로347길,서울특별시 서초구 남부순환로347길 101,127.0298364,37.48870549
서초구,카페하임,서울특별시 서초구 양재동 265-21,1.17E+11,서울특별시 서초구 마방로6길,서울특별시 서초구 마방로6길 37,127.0431709,37.47431621
서초구,태양커피,서울특별시 서초구 방배동 453-33,1.17E+11,서울특별시 서초구 방배천로,서울특별시 서초구 방배천로 32,126.9826496,37.47946923
서초구,카페설리번,서울특별시 서초구 서초동 1670-15,1.17E+11,서울특별시 서초구 서초대로56길,서울특별시 서초구 서초대로56길 18,127.0170041,37.49371741
서초구,코지리틀,서울특별시 서초구 양재동 270,1.17E+11,서울특별시 서초구 언남11길,서울특별시 서초구 언남11길 20,127.0436585,37.47509506
서초구,위클,서울특별시 서초구 양재동 84-17,1.17E+11,서울특별시 서초구 논현로,서울특별시 서초구 논현로 117,127.0432984,37.48028225
서초구,로우어가든,서울특별시 서초구 반포동 737-13,1.17E+11,서울특별시 서초구 사평대로57길,서울특별시 서초구 사평대로57길 28,127.0230805,37.50558965
서초구,커피빈,서울특별시 서초구 잠원동 37-1,1.17E+11,서울특별시 서초구 강남대로,서울특별시 서초구 강남대로 563,127.0204187,37.51193806
서초구,크로크로X슬코,서울특별시 서초구 방배동 6-9,1.17E+11,서울특별시 서초구 방배로42길,서울특별시 서초구 방배로42길 61,126.9911763,37.49363484
서초구,UCL,서울특별시 서초구 서초동 1316-5,1.17E+11,서울특별시 서초구 서초대로,서울특별시 서초구 서초대로 397,127.0244987,37.49742881
서초구,타미하우스,서울특별시 서초구 서초동 1484-3,1.17E+11,서울특별시 서초구 반포대로1길,서울특별시 서초구 반포대로1길 55,127.010948,37.4830254
서초구,파스쿠찌,서울특별시 서초구 서초동 1344-13,1.17E+11,서울특별시 서초구 효령로72길,서울특별시 서초구 효령로72길 57,127.0284676,37.48700026
서초구,1FLF,서울특별시 서초구 양재동 250-6,1.17E+11,서울특별시 서초구 언남길,서울특별시 서초구 언남길 35,127.0416756,37.4727813
서초구,셀렉토커피,서울특별시 서초구 방배동 824-3,1.17E+11,서울특별시 서초구 동광로8길,서울특별시 서초구 동광로8길 6,126.9853599,37.49057551
서초구,셜록홈즈,서울특별시 서초구 서초동 1308-5,1.17E+11,서울특별시 서초구 서초대로77길,서울특별시 서초구 서초대로77길 43,127.0248884,37.50137865
서초구,파스쿠찌,서울특별시 서초구 반포동 19-4,1.17E+11,서울특별시 서초구 신반포로,서울특별시 서초구 신반포로 194,127.0068163,37.50642716
서초구,초초베이크숍,서울특별시 서초구 서초동 1449-1,1.17E+11,서울특별시 서초구 남부순환로,서울특별시 서초구 남부순환로 2419,127.0151379,37.48168178
서초구,티팔레트,서울특별시 서초구 서초동 1548-13,1.17E+11,서울특별시 서초구 반포대로22길,서울특별시 서초구 반포대로22길 29,127.0104334,37.48946364
서초구,미미앤쥬쥬,서울특별시 서초구 반포동 738-10,1.17E+11,서울특별시 서초구 사평대로57길,서울특별시 서초구 사평대로57길 43,127.0225871,37.50612621
서초구,아트메이저,서울특별시 서초구 방배동 897-2,1.17E+11,서울특별시 서초구 서초대로,서울특별시 서초구 서초대로 114,126.9947722,37.48774556
서초구,하프커피,서울특별시 서초구 반포동 118-3,1.17E+11,서울특별시 서초구 사평대로,서울특별시 서초구 사평대로 205,127.0078261,37.50448036
서초구,더라운지,서울특별시 서초구 반포동 19-3,1.17E+11,서울특별시 서초구 신반포로,서울특별시 서초구 신반포로 176,127.0023932,37.50393001
서초구,그루스터디카페,서울특별시 서초구 내곡동 368,1.17E+11,서울특별시 서초구 청계산로9길,서울특별시 서초구 청계산로9길 70,127.0597803,37.45345478
서초구,카페고릴라,서울특별시 서초구 우면동 70,1.17E+11,서울특별시 서초구 바우뫼로,서울특별시 서초구 바우뫼로 53,127.0275369,37.4724315
서초구,cafegran,서울특별시 서초구 서초동 1730-1,1.17E+11,서울특별시 서초구 반포대로,서울특별시 서초구 반포대로 157,127.0061534,37.49414924
서초구,그리지오:우아한커피,서울특별시 서초구 양재동 82-6,1.17E+11,서울특별시 서초구 바우뫼로,서울특별시 서초구 바우뫼로 196,127.0410128,37.47952485
서초구,델라이방배,서울특별시 서초구 방배동 919-4,1.17E+11,서울특별시 서초구 방배중앙로,서울특별시 서초구 방배중앙로 24,126.992585,37.48221248
서초구,빌리엔젤,서울특별시 서초구 서초동 1498-5,1.17E+11,서울특별시 서초구 서초대로38길,서울특별시 서초구 서초대로38길 12,127.0053652,37.49048432
서초구,더커피,서울특별시 서초구 반포동 549-26,1.17E+11,서울특별시 서초구 반포대로39길,서울특별시 서초구 반포대로39길 56-14,127.0018105,37.49842867
서초구,CAFFEBOSCO,서울특별시 서초구 잠원동 12-25,1.17E+11,서울특별시 서초구 강남대로,서울특별시 서초구 강남대로 621,127.0187669,37.51715045
서초구,카페마메,서울특별시 서초구 서초동 1603-69,1.17E+11,서울특별시 서초구 효령로,서울특별시 서초구 효령로 307,127.017823,37.48558769
서초구,카페델씨엘로,서울특별시 서초구 반포동 1053,1.17E+11,서울특별시 서초구 신반포로,서울특별시 서초구 신반포로 22,126.9871619,37.50116032
서초구,황다방,서울특별시 서초구 서초동 1603-69,1.17E+11,서울특별시 서초구 효령로,서울특별시 서초구 효령로 307,127.017823,37.48558769
서초구,위드미,서울특별시 서초구 반포동 118-3,1.17E+11,서울특별시 서초구 사평대로,서울특별시 서초구 사평대로 205,127.0078261,37.50448036
서초구,홍스커피,서울특별시 서초구 우면동 712,1.17E+11,서울특별시 서초구 형촌길,서울특별시 서초구 형촌길 15,127.0214494,37.46328956
서초구,로맨틱타임,서울특별시 서초구 서초동 1511-13,1.17E+11,서울특별시 서초구 반포대로21길,서울특별시 서초구 반포대로21길 34,127.0080422,37.48729006
서초구,커피볶는집바오밥나무,서울특별시 서초구 서초동 1640-1,1.17E+11,서울특별시 서초구 서초대로60길,서울특별시 서초구 서초대로60길 25,127.018562,37.49391959
서초구,레드램커피,서울특별시 서초구 서초동 1549-5,1.17E+11,서울특별시 서초구 반포대로22길,서울특별시 서초구 반포대로22길 35,127.0105995,37.48972634
서초구,스타벅스,서울특별시 서초구 반포동 748-1,1.17E+11,서울특별시 서초구 강남대로,서울특별시 서초구 강남대로 483,127.023627,37.50531485
서초구,스타벅스,서울특별시 서초구 반포동 52-6,1.17E+11,서울특별시 서초구 서초중앙로,서울특별시 서초구 서초중앙로 225,127.0115392,37.50165515
서초구,도너츠윤,서울특별시 서초구 방배동 1507,1.17E+11,서울특별시 서초구 동광로12가길,서울특별시 서초구 동광로12가길 12,126.9841585,37.48743853
서초구,설빙,서울특별시 서초구 서초동 1458-3,1.17E+11,서울특별시 서초구 효령로,서울특별시 서초구 효령로 264,127.0131038,37.48416975
서초구,솟솟618,서울특별시 서초구 원지동 419-17,1.17E+11,서울특별시 서초구 원터2길,서울특별시 서초구 원터2길 9,127.0557528,37.44386238
서초구,몰리스펫샵,서울특별시 서초구 반포동 118-3,1.17E+11,서울특별시 서초구 사평대로,서울특별시 서초구 사평대로 205,127.0078261,37.50448036
서초구,도노커피SC제일은행반포,서울특별시 서초구 반포동 18-3,1.17E+11,서울특별시 서초구 반포대로,서울특별시 서초구 반포대로 287,127.0010418,37.50434209
서초구,티앤,서울특별시 서초구 방배동 846-3,1.17E+11,서울특별시 서초구 방배로28길,서울특별시 서초구 방배로28길 89,126.9969811,37.49168392
서초구,설빙,서울특별시 서초구 서초동 1359-23,1.17E+11,서울특별시 서초구 서운로6길,서울특별시 서초구 서운로6길 17,127.0304033,37.48596192
서초구,엘리펀트파크,서울특별시 서초구 우면동 13,1.17E+11,서울특별시 서초구 바우뫼로6길,서울특별시 서초구 바우뫼로6길 56,127.0277561,37.46860381
서초구,커피집,서울특별시 서초구 서초동 1487-9,1.17E+11,서울특별시 서초구 반포대로9길,서울특별시 서초구 반포대로9길 80,127.0071979,37.48273264
서초구,언니가숨겨놓은과자상자,서울특별시 서초구 방배동 464-12,1.17E+11,서울특별시 서초구 방배천로8길,서울특별시 서초구 방배천로8길 36,126.9846382,37.48039641
서초구,베네딕트영,서울특별시 서초구 서초동 1656-4,1.17E+11,서울특별시 서초구 서초중앙로,서울특별시 서초구 서초중앙로 110,127.0144766,37.49156986
서초구,메가엠지씨커피,서울특별시 서초구 서초동 1575-9,1.17E+11,서울특별시 서초구 서초중앙로,서울특별시 서초구 서초중앙로 107,127.0137658,37.4914468
서초구,싱글오리진,서울특별시 서초구 우면동 687,1.17E+11,서울특별시 서초구 성촌1길,서울특별시 서초구 성촌1길 12,127.0221308,37.46565598
서초구,연카페,서울특별시 서초구 양재동 80-12,1.17E+11,서울특별시 서초구 양재천로21길,서울특별시 서초구 양재천로21길 9,127.0391461,37.47608566
서초구,청년다방,서울특별시 서초구 서초동 1576-6,1.17E+11,서울특별시 서초구 서초중앙로,서울특별시 서초구 서초중앙로 99,127.0139123,37.49061905
서초구,서울팜,서울특별시 서초구 서초동 1310-5,1.17E+11,서울특별시 서초구 서운로,서울특별시 서초구 서운로 184,127.023381,37.49988847
서초구,백미당양재,서울특별시 서초구 양재동 232,1.17E+11,서울특별시 서초구 강남대로,서울특별시 서초구 강남대로 27,127.0391217,37.46827328
서초구,카이로스,서울특별시 서초구 우면동 67,1.17E+11,서울특별시 서초구 바우뫼로,서울특별시 서초구 바우뫼로 33,127.0252427,37.47150253
서초구,ILCOFFEE서초마제,서울특별시 서초구 서초동 1498-5,1.17E+11,서울특별시 서초구 서초대로38길,서울특별시 서초구 서초대로38길 12,127.0053652,37.49048432
서초구,어반정글,서울특별시 서초구 양재동 1-13,1.17E+11,서울특별시 서초구 남부순환로,서울특별시 서초구 남부순환로 2632,127.0384001,37.48489195
서초구,캠퍼,서울특별시 서초구 서초동 1633-4,1.17E+11,서울특별시 서초구 사임당로,서울특별시 서초구 사임당로 115,127.0223524,37.49116675
서초구,커피만나,서울특별시 서초구 잠원동 8-2,1.17E+11,서울특별시 서초구 강남대로107길,서울특별시 서초구 강남대로107길 21,127.0176598,37.51789813
서초구,브라운홀릭,서울특별시 서초구 양재동 230,1.17E+11,서울특별시 서초구 청계산로,서울특별시 서초구 청계산로 10,127.0435124,37.46348822
서초구,세라젬카페오가다,서울특별시 서초구 반포동 57-3,1.17E+11,서울특별시 서초구 서초중앙로,서울특별시 서초구 서초중앙로 251,127.010538,37.50381831
서초구,커피빈,서울특별시 서초구 서초동 1582-12,1.17E+11,서울특별시 서초구 반포대로,서울특별시 서초구 반포대로 70,127.0105152,37.48668907
서초구,더치스토리,서울특별시 서초구 양재동 232,1.17E+11,서울특별시 서초구 강남대로,서울특별시 서초구 강남대로 27,127.0391217,37.46827328
서초구,리더스,서울특별시 서초구 서초동 1330-20,1.17E+11,서울특별시 서초구 강남대로53길,서울특별시 서초구 강남대로53길 7,127.0282492,37.49425196
서초구,스타벅스,서울특별시 서초구 서초동 1464-22,1.17E+11,서울특별시 서초구 남부순환로,서울특별시 서초구 남부순환로 2395,127.0123471,37.48066733
서초구,카페희다,서울특별시 서초구 반포동 19-3,1.17E+11,서울특별시 서초구 신반포로,서울특별시 서초구 신반포로 176,127.0023932,37.50393001
서초구,연두애,서울특별시 서초구 서초동 1354-3,1.17E+11,서울특별시 서초구 남부순환로,서울특별시 서초구 남부순환로 2547,127.0291026,37.48423923
서초구,오설록,서울특별시 서초구 반포동 19-3,1.17E+11,서울특별시 서초구 신반포로,서울특별시 서초구 신반포로 176,127.0023932,37.50393001
서초구,카페드엠,서울특별시 서초구 방배동 757-1,1.17E+11,서울특별시 서초구 방배로,서울특별시 서초구 방배로 285,126.9866844,37.49800254
서초구,스타벅스,서울특별시 서초구 서초동 1657-5,1.17E+11,서울특별시 서초구 서초중앙로,서울특별시 서초구 서초중앙로 118,127.014217,37.49238766
서초구,본우리집밥카페일마지오서울검찰,서울특별시 서초구 서초동 1724,1.17E+11,서울특별시 서초구 반포대로,서울특별시 서초구 반포대로 158,127.0061993,37.49580756
서초구,2Hours,서울특별시 서초구 서초동 1420-6,1.17E+11,서울특별시 서초구 남부순환로337가길,서울특별시 서초구 남부순환로337가길 70,127.0247523,37.48487919
서초구,개러지레옹스,서울특별시 서초구 방배동 769-23,1.17E+11,서울특별시 서초구 방배중앙로,서울특별시 서초구 방배중앙로 170,126.9863051,37.49426893
서초구,이디야커피,서울특별시 서초구 우면동 764,1.17E+11,서울특별시 서초구 양재대로2길,서울특별시 서초구 양재대로2길 100-11,127.0162374,37.45645229
서초구,카페,서울특별시 서초구 서초동 1556-9,1.17E+11,서울특별시 서초구 반포대로28길,서울특별시 서초구 반포대로28길 39,127.0104786,37.49117602
서초구,엠디에프커피바,서울특별시 서초구 반포동 18-3,1.17E+11,서울특별시 서초구 반포대로,서울특별시 서초구 반포대로 287,127.0010418,37.50434209
서초구,만랩커피,서울특별시 서초구 서초동 1446-11,1.17E+11,서울특별시 서초구 서초중앙로,서울특별시 서초구 서초중앙로 15,127.0156294,37.48300142
서초구,늘봄카페내곡,서울특별시 서초구 신원동 294,1.17E+11,서울특별시 서초구 청계산로7길,서울특별시 서초구 청계산로7길 9-20,127.0544299,37.45199743
서초구,투나인,서울특별시 서초구 내곡동 1-2049,1.17E+11,서울특별시 서초구 샘마을1길,서울특별시 서초구 샘마을1길 9-1,127.0706865,37.45808241
서초구,플라티,서울특별시 서초구 서초동 1438-9,1.17E+11,서울특별시 서초구 효령로68길,서울특별시 서초구 효령로68길 14,127.0237006,37.48662757
서초구,스타캐슬카페아띠,서울특별시 서초구 서초동 1445-3,1.17E+11,서울특별시 서초구 효령로,서울특별시 서초구 효령로 304,127.0177891,37.48472239
서초구,소프트리,서울특별시 서초구 서초동 1716-4,1.17E+11,서울특별시 서초구 서초대로,서울특별시 서초구 서초대로 275,127.0116375,37.49333925
서초구,할리스커피,서울특별시 서초구 반포동 19-4,1.17E+11,서울특별시 서초구 신반포로,서울특별시 서초구 신반포로 194,127.0068163,37.50642716
서초구,화려한수다,서울특별시 서초구 양재동 232,1.17E+11,서울특별시 서초구 강남대로,서울특별시 서초구 강남대로 27,127.0391217,37.46827328
서초구,스타벅스,서울특별시 서초구 잠원동 37-7,1.17E+11,서울특별시 서초구 강남대로,서울특별시 서초구 강남대로 557,127.0206276,37.51153431
서초구,큐커피향,서울특별시 서초구 방배동 480-3,1.17E+11,서울특별시 서초구 효령로2길,서울특별시 서초구 효령로2길 25,126.9877022,37.47621477
서초구,허유산코리아,서울특별시 서초구 서초동 1309-9,1.17E+11,서울특별시 서초구 서초대로77길,서울특별시 서초구 서초대로77길 55,127.0244504,37.50200577
서초구,ILNOCE,서울특별시 서초구 서초동 1338-21,1.17E+11,서울특별시 서초구 강남대로,서울특별시 서초구 강남대로 309,127.0305241,37.49061237
서초구,소통과공감센터,서울특별시 서초구 방배동 781-1,1.17E+11,서울특별시 서초구 방배중앙로25길,서울특별시 서초구 방배중앙로25길 37,126.9839584,37.49386131
서초구,파스쿠찌,서울특별시 서초구 서초동 1340-11,1.17E+11,서울특별시 서초구 강남대로47길,서울특별시 서초구 강남대로47길 12,127.0309655,37.4888319
서초구,이규원세무사사무실,서울특별시 서초구 서초동 1573-1,1.17E+11,서울특별시 서초구 서초대로,서울특별시 서초구 서초대로 286,127.0130195,37.49316158
서초구,소스페소,서울특별시 서초구 서초동 1316-15,1.17E+11,서울특별시 서초구 강남대로61길,서울특별시 서초구 강남대로61길 23,127.0242364,37.49846286
서초구,스크롤,서울특별시 서초구 방배동 984-1,1.17E+11,서울특별시 서초구 방배로,서울특별시 서초구 방배로 76,126.9982872,37.4810986
서초구,커피하우스융,서울특별시 서초구 양재동 367-6,1.17E+11,서울특별시 서초구 동산로6길,서울특별시 서초구 동산로6길 47,127.0450779,37.46927668
서초구,다온,서울특별시 서초구 양재동 8-71,1.17E+11,서울특별시 서초구 남부순환로356길,서울특별시 서초구 남부순환로356길 33,127.0382025,37.48354776
서초구,서울만남의광장휴게소할리스매장,서울특별시 서초구 원지동 10-16,1.17E+11,서울특별시 서초구 양재대로12길,서울특별시 서초구 양재대로12길 73-71,127.0427135,37.45965224
서초구,엘브로커피,서울특별시 서초구 서초동 1567-10,1.17E+11,서울특별시 서초구 서초대로46길,서울특별시 서초구 서초대로46길 93,127.013127,37.49014394
서초구,원아커피,서울특별시 서초구 방배동 1021-17,1.17E+11,서울특별시 서초구 방배로8길,서울특별시 서초구 방배로8길 10-7,126.999593,37.47983918
서초구,플랜에이스터디카페,서울특별시 서초구 서초동 1481-3,1.17E+11,서울특별시 서초구 효령로46길,서울특별시 서초구 효령로46길 22,127.0086928,37.48255597
서초구,카페천국,서울특별시 서초구 서초동 1579-5,1.17E+11,서울특별시 서초구 사임당로,서울특별시 서초구 사임당로 31,127.0134689,37.48822755
서초구,밀즈앤모어,서울특별시 서초구 잠원동 31-1,1.17E+11,서울특별시 서초구 나루터로10길,서울특별시 서초구 나루터로10길 29,127.0162797,37.51358862
서초구,레드망고,서울특별시 서초구 반포동 1166,1.17E+11,서울특별시 서초구 신반포로,서울특별시 서초구 신반포로 49,126.9900437,37.50216714
서초구,더카페,서울특별시 서초구 잠원동 70-3,1.17E+11,서울특별시 서초구 잠원로3길,서울특별시 서초구 잠원로3길 31,127.0047569,37.50904991
서초구,쉘리,서울특별시 서초구 잠원동 70-2,1.17E+11,서울특별시 서초구 잠원로,서울특별시 서초구 잠원로 51,127.0074239,37.50923454
서초구,사진찍는카페찰리,서울특별시 서초구 반포동 551-36,1.17E+11,서울특별시 서초구 동광로49길,서울특별시 서초구 동광로49길 88,127.0006236,37.49668861
서초구,핀카페,서울특별시 서초구 반포동 88-7,1.17E+11,서울특별시 서초구 서래로,서울특별시 서초구 서래로 8,126.9982293,37.49559608
서초구,카페,서울특별시 서초구 반포동 59-4,1.17E+11,서울특별시 서초구 고무래로,서울특별시 서초구 고무래로 6-6,127.0097641,37.50418126
서초구,쓰리버즈,서울특별시 서초구 반포동 118-3,1.17E+11,서울특별시 서초구 사평대로,서울특별시 서초구 사평대로 205,127.0078261,37.50448036
서초구,라떼또뜨,서울특별시 서초구 방배동 875-1,1.17E+11,서울특별시 서초구 방배로,서울특별시 서초구 방배로 170,126.9931628,37.48886719
서초구,파티시에티모,서울특별시 서초구 양재동 247-9,1.17E+11,서울특별시 서초구 언남1길,서울특별시 서초구 언남1길 18,127.0403636,37.47282471
서초구,하품카페,서울특별시 서초구 양재동 241,1.17E+11,서울특별시 서초구 마방로,서울특별시 서초구 마방로 2,127.0391331,37.47356259
서초구,영도커피,서울특별시 서초구 방배동 477-6,1.17E+11,서울특별시 서초구 효령로,서울특별시 서초구 효령로 20,126.987247,37.47727411
서초구,익투스,서울특별시 서초구 방배동 423-3,1.17E+11,서울특별시 서초구 서초대로,서울특별시 서초구 서초대로 22-13,126.9849712,37.4850397
서초구,라크레모사,서울특별시 서초구 서초동 1605-9,1.17E+11,서울특별시 서초구 효령로,서울특별시 서초구 효령로 341,127.0213033,37.48663477
서초구,오우아,서울특별시 서초구 방배동 474-7,1.17E+11,서울특별시 서초구 도구로1길,서울특별시 서초구 도구로1길 73-1,126.98583,37.4775503
서초구,콘띠오,서울특별시 서초구 양재동 250-6,1.17E+11,서울특별시 서초구 언남길,서울특별시 서초구 언남길 35,127.0416756,37.4727813
서초구,액트커피,서울특별시 서초구 방배동 454-26,1.17E+11,서울특별시 서초구 방배천로4안길,서울특별시 서초구 방배천로4안길 40,126.9833912,37.47980901
서초구,커피온리우성아파트점,서울특별시 서초구 서초동 1330-10,1.17E+11,서울특별시 서초구 사임당로,서울특별시 서초구 사임당로 175,127.0286616,37.49297586
서초구,유현커피,서울특별시 서초구 서초동 1712-2,1.17E+11,서울특별시 서초구 법원로2길,서울특별시 서초구 법원로2길 7-4,127.0116175,37.49399685
서초구,라크리마외교타운점,서울특별시 서초구 서초동 1376-1,1.17E+11,서울특별시 서초구 남부순환로,서울특별시 서초구 남부순환로 2558,127.0296764,37.48358617
서초구,카페,서울특별시 서초구 양재동 401-13,1.17E+11,서울특별시 서초구 논현로5길,서울특별시 서초구 논현로5길 11,127.0492706,37.47206774
서초구,카페이안,서울특별시 서초구 양재동 322-2,1.17E+11,서울특별시 서초구 강남대로12길,서울특별시 서초구 강남대로12길 41,127.0410121,37.47073051
서초구,메가커피,서울특별시 서초구 반포동 128-4,1.17E+11,서울특별시 서초구 신반포로,서울특별시 서초구 신반포로 186-2,127.0045497,37.5059125
서초구,카페늘봄,서울특별시 서초구 염곡동 300-11,1.17E+11,서울특별시 서초구 양재대로,서울특별시 서초구 양재대로 242,127.044411,37.4657121
서초구,잇츠카페플러스,서울특별시 서초구 서초동 1486-4,1.17E+11,서울특별시 서초구 효령로,서울특별시 서초구 효령로 218,127.007995,37.48316283
